{
"type": "FeatureCollection",
"crs": { "type": "name", "properties": { "name": "urn:ogc:def:crs:OGC:1.3:CRS84" } },
"features": [
{ "type": "Feature", "properties": { "X": -118.31068, "Y": 33.72176, "Store_Name": "vons 2162", "Address": "1440 W 25th St", "Address_Line__2": null, "City": "San Pedro", "State": "CA", "Zip5": 90732, "Zip4": "4418", "County": "LOS ANGELES", "Longitude": -118.31068, "Latitude": 33.72176, "ObjectId": 80, "store_chain": "Vons", "chain_name": "Vons", "index_right": 79, "name": "San Pedro", "chainstore_counts": 7.0 }, "geometry": { "type": "Point", "coordinates": [ -118.31068, 33.72176 ] } },
{ "type": "Feature", "properties": { "X": -118.31312, "Y": 33.723164, "Store_Name": "smart & final 923", "Address": "1636 W 25th St", "Address_Line__2": null, "City": "San Pedro", "State": "CA", "Zip5": 90732, "Zip4": "4302", "County": "LOS ANGELES", "Longitude": -118.31312, "Latitude": 33.723164, "ObjectId": 80, "store_chain": "Smart & Final", "chain_name": "Smart & Final", "index_right": 79, "name": "San Pedro", "chainstore_counts": 7.0 }, "geometry": { "type": "Point", "coordinates": [ -118.31312, 33.723164 ] } },
{ "type": "Feature", "properties": { "X": -118.29841, "Y": 33.74337, "Store_Name": "numero uno market - san pedro 121", "Address": "970 W 1st St", "Address_Line__2": null, "City": "San Pedro", "State": "CA", "Zip5": 90731, "Zip4": "1998", "County": "LOS ANGELES", "Longitude": -118.29841, "Latitude": 33.74337, "ObjectId": 80, "store_chain": "Numero Uno Market", "chain_name": "Numero Uno Market", "index_right": 79, "name": "San Pedro", "chainstore_counts": 7.0 }, "geometry": { "type": "Point", "coordinates": [ -118.29841, 33.74337 ] } },
{ "type": "Feature", "properties": { "X": -118.3091, "Y": 33.750385, "Store_Name": "sprouts farmers market 252", "Address": "820 N Western Ave", "Address_Line__2": null, "City": "San Pedro", "State": "CA", "Zip5": 90732, "Zip4": "2426", "County": "LOS ANGELES", "Longitude": -118.3091, "Latitude": 33.750385, "ObjectId": 80, "store_chain": "Sprouts", "chain_name": "Sprouts", "index_right": 79, "name": "San Pedro", "chainstore_counts": 7.0 }, "geometry": { "type": "Point", "coordinates": [ -118.3091, 33.750385 ] } },
{ "type": "Feature", "properties": { "X": -118.2924, "Y": 33.732872, "Store_Name": "vons 2283", "Address": "1221 S Gaffey St", "Address_Line__2": null, "City": "San Pedro", "State": "CA", "Zip5": 90731, "Zip4": "4014", "County": "LOS ANGELES", "Longitude": -118.2924, "Latitude": 33.732872, "ObjectId": 80, "store_chain": "Vons", "chain_name": "Vons", "index_right": 79, "name": "San Pedro", "chainstore_counts": 7.0 }, "geometry": { "type": "Point", "coordinates": [ -118.2924, 33.732872 ] } },
{ "type": "Feature", "properties": { "X": -118.28788, "Y": 33.739361, "Store_Name": "numero uno market 106", "Address": "500 S Pacific Ave", "Address_Line__2": null, "City": "San Pedro", "State": "CA", "Zip5": 90731, "Zip4": "2628", "County": "LOS ANGELES", "Longitude": -118.28788, "Latitude": 33.739361, "ObjectId": 80, "store_chain": "Numero Uno Market", "chain_name": "Numero Uno Market", "index_right": 79, "name": "San Pedro", "chainstore_counts": 7.0 }, "geometry": { "type": "Point", "coordinates": [ -118.28788, 33.739361 ] } },
{ "type": "Feature", "properties": { "X": -118.30884, "Y": 33.752975, "Store_Name": "ralphs grocery company 87", "Address": "1050 N Western Ave", "Address_Line__2": null, "City": "San Pedro", "State": "CA", "Zip5": 90732, "Zip4": "2428", "County": "LOS ANGELES", "Longitude": -118.30884, "Latitude": 33.752975, "ObjectId": 80, "store_chain": "Ralphs", "chain_name": "Ralphs", "index_right": 79, "name": "San Pedro", "chainstore_counts": 7.0 }, "geometry": { "type": "Point", "coordinates": [ -118.30884, 33.752975 ] } },
{ "type": "Feature", "properties": { "X": -118.31094, "Y": 33.764992, "Store_Name": "albertsons 699", "Address": "28090 S Western Ave", "Address_Line__2": null, "City": "San Pedro", "State": "CA", "Zip5": 90732, "Zip4": "1246", "County": "LOS ANGELES", "Longitude": -118.31094, "Latitude": 33.764992, "ObjectId": 80, "store_chain": "Albertsons", "chain_name": "Albertsons", "index_right": 79, "name": "San Pedro", "chainstore_counts": 7.0 }, "geometry": { "type": "Point", "coordinates": [ -118.31094, 33.764992 ] } },
{ "type": "Feature", "properties": { "X": -118.26582, "Y": 33.779755, "Store_Name": "food 4 less  760", "Address": "336 W Anaheim St", "Address_Line__2": null, "City": "Wilmington", "State": "CA", "Zip5": 90744, "Zip4": "4421", "County": "LOS ANGELES", "Longitude": -118.26582, "Latitude": 33.779755, "ObjectId": 110, "store_chain": "Food 4 Less", "chain_name": "Food 4 Less", "index_right": 109, "name": "Wilmington", "chainstore_counts": 2.0 }, "geometry": { "type": "Point", "coordinates": [ -118.26582, 33.779755 ] } },
{ "type": "Feature", "properties": { "X": -118.26318, "Y": 33.779892, "Store_Name": "el super 48", "Address": "120 W Anaheim St", "Address_Line__2": null, "City": "Wilmington", "State": "CA", "Zip5": 90744, "Zip4": "4417", "County": "LOS ANGELES", "Longitude": -118.26318, "Latitude": 33.779892, "ObjectId": 110, "store_chain": "El Super", "chain_name": "El Super", "index_right": 109, "name": "Wilmington", "chainstore_counts": 2.0 }, "geometry": { "type": "Point", "coordinates": [ -118.26318, 33.779892 ] } },
{ "type": "Feature", "properties": { "X": -118.29152, "Y": 33.924629, "Store_Name": "ralphs 266", "Address": "11922 S Vermont Ave", "Address_Line__2": null, "City": "Los Angeles", "State": "CA", "Zip5": 90044, "Zip4": "4054", "County": "LOS ANGELES", "Longitude": -118.29152, "Latitude": 33.924629, "ObjectId": 102, "store_chain": "Ralphs", "chain_name": "Ralphs", "index_right": 101, "name": "Vermont Vista", "chainstore_counts": 2.0 }, "geometry": { "type": "Point", "coordinates": [ -118.29152, 33.924629 ] } },
{ "type": "Feature", "properties": { "X": -118.28275, "Y": 33.953651, "Store_Name": "numero uno market 103", "Address": "9127 S Figueroa St", "Address_Line__2": null, "City": "Los Angeles", "State": "CA", "Zip5": 90003, "Zip4": "3905", "County": "LOS ANGELES", "Longitude": -118.28275, "Latitude": 33.953651, "ObjectId": 102, "store_chain": "Numero Uno Market", "chain_name": "Numero Uno Market", "index_right": 101, "name": "Vermont Vista", "chainstore_counts": 2.0 }, "geometry": { "type": "Point", "coordinates": [ -118.28275, 33.953651 ] } },
{ "type": "Feature", "properties": { "X": -118.24466, "Y": 33.943256, "Store_Name": "food 4 less 322", "Address": "1651 E 103rd St", "Address_Line__2": null, "City": "Los Angeles", "State": "CA", "Zip5": 90002, "Zip4": "2924", "County": "LOS ANGELES", "Longitude": -118.24466, "Latitude": 33.943256, "ObjectId": 103, "store_chain": "Food 4 Less", "chain_name": "Food 4 Less", "index_right": 102, "name": "Watts", "chainstore_counts": 2.0 }, "geometry": { "type": "Point", "coordinates": [ -118.24466, 33.943256 ] } },
{ "type": "Feature", "properties": { "X": -118.23073, "Y": 33.947647, "Store_Name": "smart & final 823", "Address": "9850 Laurel St", "Address_Line__2": null, "City": "Los Angeles", "State": "CA", "Zip5": 90002, "Zip4": "1846", "County": "LOS ANGELES", "Longitude": -118.23073, "Latitude": 33.947647, "ObjectId": 103, "store_chain": "Smart & Final", "chain_name": "Smart & Final", "index_right": 102, "name": "Watts", "chainstore_counts": 2.0 }, "geometry": { "type": "Point", "coordinates": [ -118.23073, 33.947647 ] } },
{ "type": "Feature", "properties": { "X": -118.26521, "Y": 33.943283, "Store_Name": "superior grocers 101", "Address": "10211 S Avalon Blvd", "Address_Line__2": null, "City": "Los Angeles", "State": "CA", "Zip5": 90003, "Zip4": "4819", "County": "LOS ANGELES", "Longitude": -118.26521, "Latitude": 33.943283, "ObjectId": 38, "store_chain": "Superior Grocers", "chain_name": "Superior Grocers", "index_right": 37, "name": "Green Meadows", "chainstore_counts": 2.0 }, "geometry": { "type": "Point", "coordinates": [ -118.26521, 33.943283 ] } },
{ "type": "Feature", "properties": { "X": -118.26922, "Y": 33.960083, "Store_Name": "numero uno market 104", "Address": "310 E Manchester Ave", "Address_Line__2": null, "City": "Los Angeles", "State": "CA", "Zip5": 90003, "Zip4": "3522", "County": "LOS ANGELES", "Longitude": -118.26922, "Latitude": 33.960083, "ObjectId": 38, "store_chain": "Numero Uno Market", "chain_name": "Numero Uno Market", "index_right": 37, "name": "Green Meadows", "chainstore_counts": 2.0 }, "geometry": { "type": "Point", "coordinates": [ -118.26922, 33.960083 ] } },
{ "type": "Feature", "properties": { "X": -118.39617, "Y": 33.95628, "Store_Name": "ralphs grocery company 209", "Address": "8824 S Sepulveda Blvd", "Address_Line__2": null, "City": "Los Angeles", "State": "CA", "Zip5": 90045, "Zip4": "4833", "County": "LOS ANGELES", "Longitude": -118.39617, "Latitude": 33.95628, "ObjectId": 105, "store_chain": "Ralphs", "chain_name": "Ralphs", "index_right": 104, "name": "Westchester", "chainstore_counts": 5.0 }, "geometry": { "type": "Point", "coordinates": [ -118.39617, 33.95628 ] } },
{ "type": "Feature", "properties": { "X": -118.39626, "Y": 33.958618, "Store_Name": "trader joe's 33", "Address": "8645 S Sepulveda Blvd", "Address_Line__2": null, "City": "Westchester", "State": "CA", "Zip5": 90045, "Zip4": "4001", "County": "LOS ANGELES", "Longitude": -118.39626, "Latitude": 33.958618, "ObjectId": 105, "store_chain": "Trader Joe's", "chain_name": "Trader Joe's", "index_right": 104, "name": "Westchester", "chainstore_counts": 5.0 }, "geometry": { "type": "Point", "coordinates": [ -118.39626, 33.958618 ] } },
{ "type": "Feature", "properties": { "X": -118.4188, "Y": 33.959267, "Store_Name": "ralphs 278", "Address": "8701 Lincoln Blvd", "Address_Line__2": null, "City": "Los Angeles", "State": "CA", "Zip5": 90045, "Zip4": "3504", "County": "LOS ANGELES", "Longitude": -118.4188, "Latitude": 33.959267, "ObjectId": 105, "store_chain": "Ralphs", "chain_name": "Ralphs", "index_right": 104, "name": "Westchester", "chainstore_counts": 5.0 }, "geometry": { "type": "Point", "coordinates": [ -118.4188, 33.959267 ] } },
{ "type": "Feature", "properties": { "X": -118.40556, "Y": 33.969025, "Store_Name": "vons  4021", "Address": "6571 W 80th St", "Address_Line__2": null, "City": "Los Angeles", "State": "CA", "Zip5": 90045, "Zip4": "1126", "County": "LOS ANGELES", "Longitude": -118.40556, "Latitude": 33.969025, "ObjectId": 105, "store_chain": "Vons", "chain_name": "Vons", "index_right": 104, "name": "Westchester", "chainstore_counts": 5.0 }, "geometry": { "type": "Point", "coordinates": [ -118.40556, 33.969025 ] } },
{ "type": "Feature", "properties": { "X": -118.37104, "Y": 33.977394, "Store_Name": "ralphs grocery company 185", "Address": "5245 W Centinela Ave", "Address_Line__2": null, "City": "Los Angeles", "State": "CA", "Zip5": 90045, "Zip4": "2001", "County": "LOS ANGELES", "Longitude": -118.37104, "Latitude": 33.977394, "ObjectId": 105, "store_chain": "Ralphs", "chain_name": "Ralphs", "index_right": 104, "name": "Westchester", "chainstore_counts": 5.0 }, "geometry": { "type": "Point", "coordinates": [ -118.37104, 33.977394 ] } },
{ "type": "Feature", "properties": { "X": -118.30904, "Y": 33.957302, "Store_Name": "superior grocers 108", "Address": "8811 S Western Ave", "Address_Line__2": null, "City": "Los Angeles", "State": "CA", "Zip5": 90047, "Zip4": "3329", "County": "LOS ANGELES", "Longitude": -118.30904, "Latitude": 33.957302, "ObjectId": 36, "store_chain": "Superior Grocers", "chain_name": "Superior Grocers", "index_right": 35, "name": "Gramercy Park", "chainstore_counts": 2.0 }, "geometry": { "type": "Point", "coordinates": [ -118.30904, 33.957302 ] } },
{ "type": "Feature", "properties": { "X": -118.30754, "Y": 33.959942, "Store_Name": "ralphs 274", "Address": "1730 W Manchester Ave", "Address_Line__2": null, "City": "Los Angeles", "State": "CA", "Zip5": 90047, "Zip4": "3034", "County": "LOS ANGELES", "Longitude": -118.30754, "Latitude": 33.959942, "ObjectId": 36, "store_chain": "Ralphs", "chain_name": "Ralphs", "index_right": 35, "name": "Gramercy Park", "chainstore_counts": 2.0 }, "geometry": { "type": "Point", "coordinates": [ -118.30754, 33.959942 ] } },
{ "type": "Feature", "properties": { "X": -118.29192, "Y": 33.964573, "Store_Name": "smart & final 337", "Address": "8137 S Vermont Ave", "Address_Line__2": null, "City": "Los Angeles", "State": "CA", "Zip5": 90044, "Zip4": "3535", "County": "LOS ANGELES", "Longitude": -118.29192, "Latitude": 33.964573, "ObjectId": 99, "store_chain": "Smart & Final", "chain_name": "Smart & Final", "index_right": 98, "name": "Vermont Knolls", "chainstore_counts": 2.0 }, "geometry": { "type": "Point", "coordinates": [ -118.29192, 33.964573 ] } },
{ "type": "Feature", "properties": { "X": -118.29139, "Y": 33.974293, "Store_Name": "el super 501", "Address": "7220 S Vermont Ave", "Address_Line__2": null, "City": "Los Angeles", "State": "CA", "Zip5": 90044, "Zip4": "5125", "County": "LOS ANGELES", "Longitude": -118.29139, "Latitude": 33.974293, "ObjectId": 99, "store_chain": "El Super", "chain_name": "El Super", "index_right": 98, "name": "Vermont Knolls", "chainstore_counts": 2.0 }, "geometry": { "type": "Point", "coordinates": [ -118.29139, 33.974293 ] } },
{ "type": "Feature", "properties": { "X": -118.44344, "Y": 33.985382, "Store_Name": "ralphs fresh fare 280", "Address": "4311 Lincoln Blvd", "Address_Line__2": null, "City": "Marina del Rey", "State": "CA", "Zip5": 90292, "Zip4": "8814", "County": "LOS ANGELES", "Longitude": -118.44344, "Latitude": 33.985382, "ObjectId": 98, "store_chain": "Ralphs", "chain_name": "Ralphs", "index_right": 97, "name": "Venice", "chainstore_counts": 4.0 }, "geometry": { "type": "Point", "coordinates": [ -118.44344, 33.985382 ] } },
{ "type": "Feature", "properties": { "X": -118.46194, "Y": 33.998547, "Store_Name": "ralphs 281", "Address": "910 Lincoln Blvd", "Address_Line__2": null, "City": "Venice", "State": "CA", "Zip5": 90291, "Zip4": "3505", "County": "LOS ANGELES", "Longitude": -118.46194, "Latitude": 33.998547, "ObjectId": 98, "store_chain": "Ralphs", "chain_name": "Ralphs", "index_right": 97, "name": "Venice", "chainstore_counts": 4.0 }, "geometry": { "type": "Point", "coordinates": [ -118.46194, 33.998547 ] } },
{ "type": "Feature", "properties": { "X": -118.465, "Y": 33.999996, "Store_Name": "smart & final 332", "Address": "604 Lincoln Blvd", "Address_Line__2": null, "City": "Venice", "State": "CA", "Zip5": 90291, "Zip4": "2830", "County": "LOS ANGELES", "Longitude": -118.465, "Latitude": 33.999996, "ObjectId": 98, "store_chain": "Smart & Final", "chain_name": "Smart & Final", "index_right": 97, "name": "Venice", "chainstore_counts": 4.0 }, "geometry": { "type": "Point", "coordinates": [ -118.465, 33.999996 ] } },
{ "type": "Feature", "properties": { "X": -118.46839, "Y": 34.00156, "Store_Name": "whole foods market 10333", "Address": "225 Lincoln Blvd", "Address_Line__2": null, "City": "Venice", "State": "CA", "Zip5": 90291, "Zip4": "2809", "County": "LOS ANGELES", "Longitude": -118.46839, "Latitude": 34.00156, "ObjectId": 98, "store_chain": "Whole Foods", "chain_name": "Whole Foods", "index_right": 97, "name": "Venice", "chainstore_counts": 4.0 }, "geometry": { "type": "Point", "coordinates": [ -118.46839, 34.00156 ] } },
{ "type": "Feature", "properties": { "X": -118.44102, "Y": 33.986904, "Store_Name": "gelson's market 10", "Address": "13455 Maxella Ave", "Address_Line__2": null, "City": "Marina del Rey", "State": "CA", "Zip5": 90292, "Zip4": "5682", "County": "LOS ANGELES", "Longitude": -118.44102, "Latitude": 33.986904, "ObjectId": 23, "store_chain": "Gelson's", "chain_name": "Gelson's", "index_right": 22, "name": "Del Rey", "chainstore_counts": 1.0 }, "geometry": { "type": "Point", "coordinates": [ -118.44102, 33.986904 ] } },
{ "type": "Feature", "properties": { "X": -118.42565, "Y": 33.97406, "Store_Name": "whole foods market 10536", "Address": "12746 W Jefferson Blvd", "Address_Line__2": null, "City": "Playa Vista", "State": "CA", "Zip5": 90094, "Zip4": "7004", "County": "LOS ANGELES", "Longitude": -118.42565, "Latitude": 33.97406, "ObjectId": 76, "store_chain": "Whole Foods", "chain_name": "Whole Foods", "index_right": 75, "name": "Playa Vista", "chainstore_counts": 1.0 }, "geometry": { "type": "Point", "coordinates": [ -118.42565, 33.97406 ] } },
{ "type": "Feature", "properties": { "X": -118.26906, "Y": 33.974663, "Store_Name": "el super 58", "Address": "310 E Florence Ave", "Address_Line__2": null, "City": "Los Angeles", "State": "CA", "Zip5": 90003, "Zip4": "2232", "County": "LOS ANGELES", "Longitude": -118.26906, "Latitude": 33.974663, "ObjectId": 34, "store_chain": "El Super", "chain_name": "El Super", "index_right": 33, "name": "Florence", "chainstore_counts": 1.0 }, "geometry": { "type": "Point", "coordinates": [ -118.26906, 33.974663 ] } },
{ "type": "Feature", "properties": { "X": -118.2914, "Y": 33.988735, "Store_Name": "superior grocers 116", "Address": "5824 S Vermont Ave", "Address_Line__2": null, "City": "Los Angeles", "State": "CA", "Zip5": 90044, "Zip4": "3712", "County": "LOS ANGELES", "Longitude": -118.2914, "Latitude": 33.988735, "ObjectId": 100, "store_chain": "Superior Grocers", "chain_name": "Superior Grocers", "index_right": 99, "name": "Vermont-Slauson", "chainstore_counts": 2.0 }, "geometry": { "type": "Point", "coordinates": [ -118.2914, 33.988735 ] } },
{ "type": "Feature", "properties": { "X": -118.29441, "Y": 33.989101, "Store_Name": "el super 17", "Address": "1100 W Slauson Ave", "Address_Line__2": null, "City": "Los Angeles", "State": "CA", "Zip5": 90044, "Zip4": "3710", "County": "LOS ANGELES", "Longitude": -118.29441, "Latitude": 33.989101, "ObjectId": 100, "store_chain": "El Super", "chain_name": "El Super", "index_right": 99, "name": "Vermont-Slauson", "chainstore_counts": 2.0 }, "geometry": { "type": "Point", "coordinates": [ -118.29441, 33.989101 ] } },
{ "type": "Feature", "properties": { "X": -118.30985, "Y": 33.989086, "Store_Name": "food 4 less  777", "Address": "1820 W Slauson Ave", "Address_Line__2": null, "City": "Los Angeles", "State": "CA", "Zip5": 90047, "Zip4": "1126", "County": "LOS ANGELES", "Longitude": -118.30985, "Latitude": 33.989086, "ObjectId": 19, "store_chain": "Food 4 Less", "chain_name": "Food 4 Less", "index_right": 18, "name": "Chesterfield Square", "chainstore_counts": 1.0 }, "geometry": { "type": "Point", "coordinates": [ -118.30985, 33.989086 ] } },
{ "type": "Feature", "properties": { "X": -118.27393, "Y": 33.994053, "Store_Name": "food 4 less 344", "Address": "5318 S Main St", "Address_Line__2": null, "City": "Los Angeles", "State": "CA", "Zip5": 90037, "Zip4": "3811", "County": "LOS ANGELES", "Longitude": -118.27393, "Latitude": 33.994053, "ObjectId": 86, "store_chain": "Food 4 Less", "chain_name": "Food 4 Less", "index_right": 85, "name": "South Park", "chainstore_counts": 2.0 }, "geometry": { "type": "Point", "coordinates": [ -118.27393, 33.994053 ] } },
{ "type": "Feature", "properties": { "X": -118.27832, "Y": 34.00087, "Store_Name": "numero uno market 107", "Address": "4700 S Broadway", "Address_Line__2": null, "City": "Los Angeles", "State": "CA", "Zip5": 90037, "Zip4": "3245", "County": "LOS ANGELES", "Longitude": -118.27832, "Latitude": 34.00087, "ObjectId": 86, "store_chain": "Numero Uno Market", "chain_name": "Numero Uno Market", "index_right": 85, "name": "South Park", "chainstore_counts": 2.0 }, "geometry": { "type": "Point", "coordinates": [ -118.27832, 34.00087 ] } },
{ "type": "Feature", "properties": { "X": -118.2916, "Y": 34.00407, "Store_Name": "numero uno market 108", "Address": "4373 S Vermont Ave", "Address_Line__2": null, "City": "Los Angeles", "State": "CA", "Zip5": 90037, "Zip4": "2411", "County": "LOS ANGELES", "Longitude": -118.2916, "Latitude": 34.00407, "ObjectId": 101, "store_chain": "Numero Uno Market", "chain_name": "Numero Uno Market", "index_right": 100, "name": "Vermont Square", "chainstore_counts": 1.0 }, "geometry": { "type": "Point", "coordinates": [ -118.2916, 34.00407 ] } },
{ "type": "Feature", "properties": { "X": -118.25647, "Y": 34.00705, "Store_Name": "mercado garibaldi", "Address": "4212 S Central Ave", "Address_Line__2": null, "City": "Los Angeles", "State": "CA", "Zip5": 90011, "Zip4": "3002", "County": "LOS ANGELES", "Longitude": -118.25647, "Latitude": 34.00705, "ObjectId": 15, "store_chain": "Aldi", "chain_name": "Aldi", "index_right": 14, "name": "Central-Alameda", "chainstore_counts": 2.0 }, "geometry": { "type": "Point", "coordinates": [ -118.25647, 34.00705 ] } },
{ "type": "Feature", "properties": { "X": -118.2516, "Y": 34.023228, "Store_Name": "superior grocers 135", "Address": "2000 S Central Ave", "Address_Line__2": null, "City": "Los Angeles", "State": "CA", "Zip5": 90011, "Zip4": "1235", "County": "LOS ANGELES", "Longitude": -118.2516, "Latitude": 34.023228, "ObjectId": 15, "store_chain": "Superior Grocers", "chain_name": "Superior Grocers", "index_right": 14, "name": "Central-Alameda", "chainstore_counts": 2.0 }, "geometry": { "type": "Point", "coordinates": [ -118.2516, 34.023228 ] } },
{ "type": "Feature", "properties": { "X": -118.33514, "Y": 34.014122, "Store_Name": "albertsons 4131", "Address": "3901 Crenshaw Blvd", "Address_Line__2": null, "City": "Los Angeles", "State": "CA", "Zip5": 90008, "Zip4": "2522", "County": "LOS ANGELES", "Longitude": -118.33514, "Latitude": 34.014122, "ObjectId": 5, "store_chain": "Albertsons", "chain_name": "Albertsons", "index_right": 4, "name": "Baldwin Hills/Crenshaw", "chainstore_counts": 3.0 }, "geometry": { "type": "Point", "coordinates": [ -118.33514, 34.014122 ] } },
{ "type": "Feature", "properties": { "X": -118.35502, "Y": 34.021469, "Store_Name": "ralphs 283", "Address": "5080 Rodeo Rd", "Address_Line__2": null, "City": "Los Angeles", "State": "CA", "Zip5": 90016, "Zip4": "4706", "County": "LOS ANGELES", "Longitude": -118.35502, "Latitude": 34.021469, "ObjectId": 5, "store_chain": "Ralphs", "chain_name": "Ralphs", "index_right": 4, "name": "Baldwin Hills/Crenshaw", "chainstore_counts": 3.0 }, "geometry": { "type": "Point", "coordinates": [ -118.35502, 34.021469 ] } },
{ "type": "Feature", "properties": { "X": -118.35554, "Y": 34.02338, "Store_Name": "superior grocers 139", "Address": "3480 S La Brea Ave", "Address_Line__2": null, "City": "Los Angeles", "State": "CA", "Zip5": 90016, "Zip4": "5258", "County": "LOS ANGELES", "Longitude": -118.35554, "Latitude": 34.02338, "ObjectId": 5, "store_chain": "Superior Grocers", "chain_name": "Superior Grocers", "index_right": 4, "name": "Baldwin Hills/Crenshaw", "chainstore_counts": 3.0 }, "geometry": { "type": "Point", "coordinates": [ -118.35554, 34.02338 ] } },
{ "type": "Feature", "properties": { "X": -118.26453, "Y": 34.015057, "Store_Name": "numero uno market 101", "Address": "701 E Jefferson Blvd", "Address_Line__2": null, "City": "Los Angeles", "State": "CA", "Zip5": 90011, "Zip4": "2456", "County": "LOS ANGELES", "Longitude": -118.26453, "Latitude": 34.015057, "ObjectId": 47, "store_chain": "Numero Uno Market", "chain_name": "Numero Uno Market", "index_right": 46, "name": "Historic South-Central", "chainstore_counts": 2.0 }, "geometry": { "type": "Point", "coordinates": [ -118.26453, 34.015057 ] } },
{ "type": "Feature", "properties": { "X": -118.25946, "Y": 34.024426, "Store_Name": "numero uno market 105", "Address": "2226 S San Pedro St", "Address_Line__2": null, "City": "Los Angeles", "State": "CA", "Zip5": 90011, "Zip4": "1128", "County": "LOS ANGELES", "Longitude": -118.25946, "Latitude": 34.024426, "ObjectId": 47, "store_chain": "Numero Uno Market", "chain_name": "Numero Uno Market", "index_right": 46, "name": "Historic South-Central", "chainstore_counts": 2.0 }, "geometry": { "type": "Point", "coordinates": [ -118.25946, 34.024426 ] } },
{ "type": "Feature", "properties": { "X": -118.42271, "Y": 34.01989, "Store_Name": "trader joe's 119", "Address": "3456 S Sepulveda Blvd", "Address_Line__2": null, "City": "Los Angeles", "State": "CA", "Zip5": 90034, "Zip4": "6010", "County": "LOS ANGELES", "Longitude": -118.42271, "Latitude": 34.01989, "ObjectId": 71, "store_chain": "Trader Joe's", "chain_name": "Trader Joe's", "index_right": 70, "name": "Palms", "chainstore_counts": 5.0 }, "geometry": { "type": "Point", "coordinates": [ -118.42271, 34.01989 ] } },
{ "type": "Feature", "properties": { "X": -118.40143, "Y": 34.021984, "Store_Name": "smart & final 330", "Address": "10113 Venice Blvd", "Address_Line__2": null, "City": "Los Angeles", "State": "CA", "Zip5": 90034, "Zip4": "5809", "County": "LOS ANGELES", "Longitude": -118.40143, "Latitude": 34.021984, "ObjectId": 71, "store_chain": "Smart & Final", "chain_name": "Smart & Final", "index_right": 70, "name": "Palms", "chainstore_counts": 5.0 }, "geometry": { "type": "Point", "coordinates": [ -118.40143, 34.021984 ] } },
{ "type": "Feature", "properties": { "X": -118.42766, "Y": 34.026203, "Store_Name": "vons 2077", "Address": "3118 S Sepulveda Blvd", "Address_Line__2": null, "City": "Los Angeles", "State": "CA", "Zip5": 90034, "Zip4": "4204", "County": "LOS ANGELES", "Longitude": -118.42766, "Latitude": 34.026203, "ObjectId": 71, "store_chain": "Vons", "chain_name": "Vons", "index_right": 70, "name": "Palms", "chainstore_counts": 5.0 }, "geometry": { "type": "Point", "coordinates": [ -118.42766, 34.026203 ] } },
{ "type": "Feature", "properties": { "X": -118.39107, "Y": 34.027954, "Store_Name": "sprouts farmers market 411", "Address": "8985 Venice Blvd", "Address_Line__2": null, "City": "Los Angeles", "State": "CA", "Zip5": 90034, "Zip4": "3344", "County": "LOS ANGELES", "Longitude": -118.39107, "Latitude": 34.027954, "ObjectId": 71, "store_chain": "Sprouts", "chain_name": "Sprouts", "index_right": 70, "name": "Palms", "chainstore_counts": 5.0 }, "geometry": { "type": "Point", "coordinates": [ -118.39107, 34.027954 ] } },
{ "type": "Feature", "properties": { "X": -118.42154, "Y": 34.030228, "Store_Name": "trader joe's 7", "Address": "10850 National Blvd", "Address_Line__2": null, "City": "Los Angeles", "State": "CA", "Zip5": 90064, "Zip4": "4123", "County": "LOS ANGELES", "Longitude": -118.42154, "Latitude": 34.030228, "ObjectId": 71, "store_chain": "Trader Joe's", "chain_name": "Trader Joe's", "index_right": 70, "name": "Palms", "chainstore_counts": 5.0 }, "geometry": { "type": "Point", "coordinates": [ -118.42154, 34.030228 ] } },
{ "type": "Feature", "properties": { "X": -118.29158, "Y": 34.022202, "Store_Name": "smart & final 456", "Address": "3607 S Vermont Ave", "Address_Line__2": null, "City": "Los Angeles", "State": "CA", "Zip5": 90007, "Zip4": "3945", "County": "LOS ANGELES", "Longitude": -118.29158, "Latitude": 34.022202, "ObjectId": 32, "store_chain": "Smart & Final", "chain_name": "Smart & Final", "index_right": 31, "name": "Exposition Park", "chainstore_counts": 2.0 }, "geometry": { "type": "Point", "coordinates": [ -118.29158, 34.022202 ] } },
{ "type": "Feature", "properties": { "X": -118.30749, "Y": 34.025085, "Store_Name": "food 4 less  359", "Address": "1748 W Jefferson Blvd", "Address_Line__2": null, "City": "Los Angeles", "State": "CA", "Zip5": 90018, "Zip4": "3910", "County": "LOS ANGELES", "Longitude": -118.30749, "Latitude": 34.025085, "ObjectId": 32, "store_chain": "Food 4 Less", "chain_name": "Food 4 Less", "index_right": 31, "name": "Exposition Park", "chainstore_counts": 2.0 }, "geometry": { "type": "Point", "coordinates": [ -118.30749, 34.025085 ] } },
{ "type": "Feature", "properties": { "X": -118.43841, "Y": 34.022743, "Store_Name": "whole foods market 10045", "Address": "11666 National Blvd", "Address_Line__2": null, "City": "Los Angeles", "State": "CA", "Zip5": 90064, "Zip4": "3802", "County": "LOS ANGELES", "Longitude": -118.43841, "Latitude": 34.022743, "ObjectId": 60, "store_chain": "Whole Foods", "chain_name": "Whole Foods", "index_right": 59, "name": "Mar Vista", "chainstore_counts": 1.0 }, "geometry": { "type": "Point", "coordinates": [ -118.43841, 34.022743 ] } },
{ "type": "Feature", "properties": { "X": -118.43308, "Y": 34.025455, "Store_Name": "ralphs 709", "Address": "11361 National Blvd", "Address_Line__2": null, "City": "Los Angeles", "State": "CA", "Zip5": 90064, "Zip4": "3726", "County": "LOS ANGELES", "Longitude": -118.43308, "Latitude": 34.025455, "ObjectId": 81, "store_chain": "Ralphs", "chain_name": "Ralphs", "index_right": 80, "name": "Sawtelle", "chainstore_counts": 5.0 }, "geometry": { "type": "Point", "coordinates": [ -118.43308, 34.025455 ] } },
{ "type": "Feature", "properties": { "X": -118.4491, "Y": 34.033566, "Store_Name": "trader joe's 215", "Address": "11755 W Olympic Blvd", "Address_Line__2": null, "City": "Los Angeles", "State": "CA", "Zip5": 90064, "Zip4": "1211", "County": "LOS ANGELES", "Longitude": -118.4491, "Latitude": 34.033566, "ObjectId": 81, "store_chain": "Trader Joe's", "chain_name": "Trader Joe's", "index_right": 80, "name": "Sawtelle", "chainstore_counts": 5.0 }, "geometry": { "type": "Point", "coordinates": [ -118.4491, 34.033566 ] } },
{ "type": "Feature", "properties": { "X": -118.4482, "Y": 34.034092, "Store_Name": "ralphs fresh fare 210", "Address": "11727 W Olympic Blvd", "Address_Line__2": null, "City": "Los Angeles", "State": "CA", "Zip5": 90064, "Zip4": "1202", "County": "LOS ANGELES", "Longitude": -118.4482, "Latitude": 34.034092, "ObjectId": 81, "store_chain": "Ralphs", "chain_name": "Ralphs", "index_right": 80, "name": "Sawtelle", "chainstore_counts": 5.0 }, "geometry": { "type": "Point", "coordinates": [ -118.4482, 34.034092 ] } },
{ "type": "Feature", "properties": { "X": -118.43743, "Y": 34.035854, "Store_Name": "smart & final 395", "Address": "11221 W Pico Blvd", "Address_Line__2": null, "City": "Los Angeles", "State": "CA", "Zip5": 90064, "Zip4": "1714", "County": "LOS ANGELES", "Longitude": -118.43743, "Latitude": 34.035854, "ObjectId": 81, "store_chain": "Smart & Final", "chain_name": "Smart & Final", "index_right": 80, "name": "Sawtelle", "chainstore_counts": 5.0 }, "geometry": { "type": "Point", "coordinates": [ -118.43743, 34.035854 ] } },
{ "type": "Feature", "properties": { "X": -118.46471, "Y": 34.039894, "Store_Name": "smart & final 315", "Address": "12210 Santa Monica Blvd", "Address_Line__2": null, "City": "Los Angeles", "State": "CA", "Zip5": 90025, "Zip4": "2518", "County": "LOS ANGELES", "Longitude": -118.46471, "Latitude": 34.039894, "ObjectId": 81, "store_chain": "Smart & Final", "chain_name": "Smart & Final", "index_right": 80, "name": "Sawtelle", "chainstore_counts": 5.0 }, "geometry": { "type": "Point", "coordinates": [ -118.46471, 34.039894 ] } },
{ "type": "Feature", "properties": { "X": -118.28403, "Y": 34.026608, "Store_Name": "trader joe's 250", "Address": "3131 S Hoover St", "Address_Line__2": "Ste 1920", "City": "Los Angeles", "State": "CA", "Zip5": 90089, "Zip4": "8500", "County": "LOS ANGELES", "Longitude": -118.28403, "Latitude": 34.026608, "ObjectId": 94, "store_chain": "Trader Joe's", "chain_name": "Trader Joe's", "index_right": 93, "name": "University Park", "chainstore_counts": 2.0 }, "geometry": { "type": "Point", "coordinates": [ -118.28403, 34.026608 ] } },
{ "type": "Feature", "properties": { "X": -118.29152, "Y": 34.032322, "Store_Name": "ralphs grocery co.  294", "Address": "2600 S Vermont Ave", "Address_Line__2": null, "City": "Los Angeles", "State": "CA", "Zip5": 90007, "Zip4": "2222", "County": "LOS ANGELES", "Longitude": -118.29152, "Latitude": 34.032322, "ObjectId": 94, "store_chain": "Ralphs", "chain_name": "Ralphs", "index_right": 93, "name": "University Park", "chainstore_counts": 2.0 }, "geometry": { "type": "Point", "coordinates": [ -118.29152, 34.032322 ] } },
{ "type": "Feature", "properties": { "X": -118.1984, "Y": 34.018791, "Store_Name": "food 4 less 330", "Address": "3654 E Olympic Blvd", "Address_Line__2": null, "City": "Los Angeles", "State": "CA", "Zip5": 90023, "Zip4": "3129", "County": "LOS ANGELES", "Longitude": -118.1984, "Latitude": 34.018791, "ObjectId": 10, "store_chain": "Food 4 Less", "chain_name": "Food 4 Less", "index_right": 9, "name": "Boyle Heights", "chainstore_counts": 4.0 }, "geometry": { "type": "Point", "coordinates": [ -118.1984, 34.018791 ] } },
{ "type": "Feature", "properties": { "X": -118.2, "Y": 34.027386, "Store_Name": "vallarta supermarket 25", "Address": "3425 Whittier Blvd", "Address_Line__2": null, "City": "Los Angeles", "State": "CA", "Zip5": 90023, "Zip4": "1707", "County": "LOS ANGELES", "Longitude": -118.2, "Latitude": 34.027386, "ObjectId": 10, "store_chain": "Vallarta Spermarkets", "chain_name": "Vallarta Spermarkets", "index_right": 9, "name": "Boyle Heights", "chainstore_counts": 4.0 }, "geometry": { "type": "Point", "coordinates": [ -118.2, 34.027386 ] } },
{ "type": "Feature", "properties": { "X": -118.21272, "Y": 34.040997, "Store_Name": "smart & final 345", "Address": "2308 E 4th St", "Address_Line__2": null, "City": "Los Angeles", "State": "CA", "Zip5": 90033, "Zip4": "4306", "County": "LOS ANGELES", "Longitude": -118.21272, "Latitude": 34.040997, "ObjectId": 10, "store_chain": "Smart & Final", "chain_name": "Smart & Final", "index_right": 9, "name": "Boyle Heights", "chainstore_counts": 4.0 }, "geometry": { "type": "Point", "coordinates": [ -118.21272, 34.040997 ] } },
{ "type": "Feature", "properties": { "X": -118.2052, "Y": 34.041656, "Store_Name": "food 4 less 363", "Address": "2750 E 1st St", "Address_Line__2": null, "City": "Los Angeles", "State": "CA", "Zip5": 90033, "Zip4": "3634", "County": "LOS ANGELES", "Longitude": -118.2052, "Latitude": 34.041656, "ObjectId": 10, "store_chain": "Food 4 Less", "chain_name": "Food 4 Less", "index_right": 9, "name": "Boyle Heights", "chainstore_counts": 4.0 }, "geometry": { "type": "Point", "coordinates": [ -118.2052, 34.041656 ] } },
{ "type": "Feature", "properties": { "X": -118.37215, "Y": 34.02663, "Store_Name": "whole foods market 10764", "Address": "3377 S la Cienega Blvd", "Address_Line__2": null, "City": "Los Angeles", "State": "CA", "Zip5": 90016, "Zip4": "3114", "County": "LOS ANGELES", "Longitude": -118.37215, "Latitude": 34.02663, "ObjectId": 104, "store_chain": "Whole Foods", "chain_name": "Whole Foods", "index_right": 103, "name": "West Adams", "chainstore_counts": 2.0 }, "geometry": { "type": "Point", "coordinates": [ -118.37215, 34.02663 ] } },
{ "type": "Feature", "properties": { "X": -118.33514, "Y": 34.028049, "Store_Name": "smart & final 470", "Address": "2929 Crenshaw Blvd", "Address_Line__2": null, "City": "Los Angeles", "State": "CA", "Zip5": 90016, "Zip4": "4266", "County": "LOS ANGELES", "Longitude": -118.33514, "Latitude": 34.028049, "ObjectId": 104, "store_chain": "Smart & Final", "chain_name": "Smart & Final", "index_right": 103, "name": "West Adams", "chainstore_counts": 2.0 }, "geometry": { "type": "Point", "coordinates": [ -118.33514, 34.028049 ] } },
{ "type": "Feature", "properties": { "X": -118.24205, "Y": 34.027538, "Store_Name": "smart & final 310", "Address": "1216 Compton Ave", "Address_Line__2": null, "City": "Los Angeles", "State": "CA", "Zip5": 90021, "Zip4": "2331", "County": "LOS ANGELES", "Longitude": -118.24205, "Latitude": 34.027538, "ObjectId": 24, "store_chain": "Smart & Final", "chain_name": "Smart & Final", "index_right": 23, "name": "Downtown", "chainstore_counts": 4.0 }, "geometry": { "type": "Point", "coordinates": [ -118.24205, 34.027538 ] } },
{ "type": "Feature", "properties": { "X": -118.26083, "Y": 34.045494, "Store_Name": "ralphs fresh fare 22", "Address": "645 W 9th St", "Address_Line__2": null, "City": "Los Angeles", "State": "CA", "Zip5": 90015, "Zip4": null, "County": "LOS ANGELES", "Longitude": -118.26083, "Latitude": 34.045494, "ObjectId": 24, "store_chain": "Ralphs", "chain_name": "Ralphs", "index_right": 23, "name": "Downtown", "chainstore_counts": 4.0 }, "geometry": { "type": "Point", "coordinates": [ -118.26083, 34.045494 ] } },
{ "type": "Feature", "properties": { "X": -118.25776, "Y": 34.045986, "Store_Name": "whole foods market 10546", "Address": "788 S Grand Ave", "Address_Line__2": null, "City": "Los Angeles", "State": "CA", "Zip5": 90017, "Zip4": "3813", "County": "LOS ANGELES", "Longitude": -118.25776, "Latitude": 34.045986, "ObjectId": 24, "store_chain": "Whole Foods", "chain_name": "Whole Foods", "index_right": 23, "name": "Downtown", "chainstore_counts": 4.0 }, "geometry": { "type": "Point", "coordinates": [ -118.25776, 34.045986 ] } },
{ "type": "Feature", "properties": { "X": -118.26219, "Y": 34.046932, "Store_Name": "smart and final 484", "Address": "845 S Figueroa St", "Address_Line__2": "Ste 100", "City": "Los Angeles", "State": "CA", "Zip5": 90017, "Zip4": null, "County": "LOS ANGELES", "Longitude": -118.26219, "Latitude": 34.046932, "ObjectId": 24, "store_chain": "Smart & Final", "chain_name": "Smart & Final", "index_right": 23, "name": "Downtown", "chainstore_counts": 4.0 }, "geometry": { "type": "Point", "coordinates": [ -118.26219, 34.046932 ] } },
{ "type": "Feature", "properties": { "X": -118.40112, "Y": 34.031155, "Store_Name": "vons 2100", "Address": "9860 National Blvd", "Address_Line__2": null, "City": "Los Angeles", "State": "CA", "Zip5": 90034, "Zip4": "2713", "County": "LOS ANGELES", "Longitude": -118.40112, "Latitude": 34.031155, "ObjectId": 20, "store_chain": "Vons", "chain_name": "Vons", "index_right": 19, "name": "Cheviot Hills", "chainstore_counts": 1.0 }, "geometry": { "type": "Point", "coordinates": [ -118.40112, 34.031155 ] } },
{ "type": "Feature", "properties": { "X": -118.55466, "Y": 34.03949, "Store_Name": "vons 2266", "Address": "17380 W Sunset Blvd", "Address_Line__2": null, "City": "Pacific Palisades", "State": "CA", "Zip5": 90272, "Zip4": "4102", "County": "LOS ANGELES", "Longitude": -118.55466, "Latitude": 34.03949, "ObjectId": 69, "store_chain": "Vons", "chain_name": "Vons", "index_right": 68, "name": "Pacific Palisades", "chainstore_counts": 3.0 }, "geometry": { "type": "Point", "coordinates": [ -118.55466, 34.03949 ] } },
{ "type": "Feature", "properties": { "X": -118.52348, "Y": 34.045425, "Store_Name": "ralphs fresh fare 705", "Address": "15120 W Sunset Blvd", "Address_Line__2": null, "City": "Pacific Palisades", "State": "CA", "Zip5": 90272, "Zip4": "3790", "County": "LOS ANGELES", "Longitude": -118.52348, "Latitude": 34.045425, "ObjectId": 69, "store_chain": "Ralphs", "chain_name": "Ralphs", "index_right": 68, "name": "Pacific Palisades", "chainstore_counts": 3.0 }, "geometry": { "type": "Point", "coordinates": [ -118.52348, 34.045425 ] } },
{ "type": "Feature", "properties": { "X": -118.52752, "Y": 34.048073, "Store_Name": "gelson's market 7", "Address": "15424 W Sunset Blvd", "Address_Line__2": null, "City": "Pacific Palisades", "State": "CA", "Zip5": 90272, "Zip4": "3582", "County": "LOS ANGELES", "Longitude": -118.52752, "Latitude": 34.048073, "ObjectId": 69, "store_chain": "Gelson's", "chain_name": "Gelson's", "index_right": 68, "name": "Pacific Palisades", "chainstore_counts": 3.0 }, "geometry": { "type": "Point", "coordinates": [ -118.52752, 34.048073 ] } },
{ "type": "Feature", "properties": { "X": -118.28088, "Y": 34.038414, "Store_Name": "garibaldi carniceria y mercado", "Address": "1051 W Washington Blvd", "Address_Line__2": "Ste A", "City": "Los Angeles", "State": "CA", "Zip5": 90015, "Zip4": "3365", "County": "LOS ANGELES", "Longitude": -118.28088, "Latitude": 34.038414, "ObjectId": 74, "store_chain": "Aldi", "chain_name": "Aldi", "index_right": 73, "name": "Pico-Union", "chainstore_counts": 3.0 }, "geometry": { "type": "Point", "coordinates": [ -118.28088, 34.038414 ] } },
{ "type": "Feature", "properties": { "X": -118.28288, "Y": 34.047062, "Store_Name": "numero uno market 102", "Address": "1309 S Alvarado St", "Address_Line__2": null, "City": "Los Angeles", "State": "CA", "Zip5": 90006, "Zip4": "4901", "County": "LOS ANGELES", "Longitude": -118.28288, "Latitude": 34.047062, "ObjectId": 74, "store_chain": "Numero Uno Market", "chain_name": "Numero Uno Market", "index_right": 73, "name": "Pico-Union", "chainstore_counts": 3.0 }, "geometry": { "type": "Point", "coordinates": [ -118.28288, 34.047062 ] } },
{ "type": "Feature", "properties": { "X": -118.28425, "Y": 34.051132, "Store_Name": "food 4 less  375", "Address": "1091 S Hoover St", "Address_Line__2": null, "City": "Los Angeles", "State": "CA", "Zip5": 90006, "Zip4": "2019", "County": "LOS ANGELES", "Longitude": -118.28425, "Latitude": 34.051132, "ObjectId": 74, "store_chain": "Food 4 Less", "chain_name": "Food 4 Less", "index_right": 73, "name": "Pico-Union", "chainstore_counts": 3.0 }, "geometry": { "type": "Point", "coordinates": [ -118.28425, 34.051132 ] } },
{ "type": "Feature", "properties": { "X": -118.30907, "Y": 34.04187, "Store_Name": "food 4 less 381", "Address": "1717 S Western Ave", "Address_Line__2": null, "City": "Los Angeles", "State": "CA", "Zip5": 90006, "Zip4": "5803", "County": "LOS ANGELES", "Longitude": -118.30907, "Latitude": 34.04187, "ObjectId": 44, "store_chain": "Food 4 Less", "chain_name": "Food 4 Less", "index_right": 43, "name": "Harvard Heights", "chainstore_counts": 2.0 }, "geometry": { "type": "Point", "coordinates": [ -118.30907, 34.04187 ] } },
{ "type": "Feature", "properties": { "X": -118.30478, "Y": 34.047237, "Store_Name": "smart & final 364", "Address": "2949 W Pico Blvd", "Address_Line__2": null, "City": "Los Angeles", "State": "CA", "Zip5": 90006, "Zip4": "3809", "County": "LOS ANGELES", "Longitude": -118.30478, "Latitude": 34.047237, "ObjectId": 44, "store_chain": "Smart & Final", "chain_name": "Smart & Final", "index_right": 43, "name": "Harvard Heights", "chainstore_counts": 2.0 }, "geometry": { "type": "Point", "coordinates": [ -118.30478, 34.047237 ] } },
{ "type": "Feature", "properties": { "X": -118.37652, "Y": 34.043133, "Store_Name": "smart & final 735", "Address": "1833 S la Cienega Blvd", "Address_Line__2": null, "City": "Los Angeles", "State": "CA", "Zip5": 90035, "Zip4": "4662", "County": "LOS ANGELES", "Longitude": -118.37652, "Latitude": 34.043133, "ObjectId": 61, "store_chain": "Smart & Final", "chain_name": "Smart & Final", "index_right": 60, "name": "Mid-City", "chainstore_counts": 4.0 }, "geometry": { "type": "Point", "coordinates": [ -118.37652, 34.043133 ] } },
{ "type": "Feature", "properties": { "X": -118.33961, "Y": 34.048386, "Store_Name": "ralphs 291", "Address": "4760 W Pico Blvd", "Address_Line__2": null, "City": "Los Angeles", "State": "CA", "Zip5": 90019, "Zip4": "4235", "County": "LOS ANGELES", "Longitude": -118.33961, "Latitude": 34.048386, "ObjectId": 61, "store_chain": "Ralphs", "chain_name": "Ralphs", "index_right": 60, "name": "Mid-City", "chainstore_counts": 4.0 }, "geometry": { "type": "Point", "coordinates": [ -118.33961, 34.048386 ] } },
{ "type": "Feature", "properties": { "X": -118.33483, "Y": 34.048569, "Store_Name": "smart & final 444", "Address": "4550 W Pico", "Address_Line__2": "Ste D303", "City": "Los Angeles", "State": "CA", "Zip5": 90019, "Zip4": "4232", "County": "LOS ANGELES", "Longitude": -118.33483, "Latitude": 34.048569, "ObjectId": 61, "store_chain": "Smart & Final", "chain_name": "Smart & Final", "index_right": 60, "name": "Mid-City", "chainstore_counts": 4.0 }, "geometry": { "type": "Point", "coordinates": [ -118.33483, 34.048569 ] } },
{ "type": "Feature", "properties": { "X": -118.36668, "Y": 34.050823, "Store_Name": "vons 2268", "Address": "1430 S Fairfax Ave", "Address_Line__2": null, "City": "Los Angeles", "State": "CA", "Zip5": 90019, "Zip4": "3745", "County": "LOS ANGELES", "Longitude": -118.36668, "Latitude": 34.050823, "ObjectId": 61, "store_chain": "Vons", "chain_name": "Vons", "index_right": 60, "name": "Mid-City", "chainstore_counts": 4.0 }, "geometry": { "type": "Point", "coordinates": [ -118.36668, 34.050823 ] } },
{ "type": "Feature", "properties": { "X": -118.46675, "Y": 34.044716, "Store_Name": "ralphs fresh fare 44", "Address": "12057 Wilshire Blvd", "Address_Line__2": null, "City": "Los Angeles", "State": "CA", "Zip5": 90025, "Zip4": "1201", "County": "LOS ANGELES", "Longitude": -118.46675, "Latitude": 34.044716, "ObjectId": 11, "store_chain": "Ralphs", "chain_name": "Ralphs", "index_right": 10, "name": "Brentwood", "chainstore_counts": 2.0 }, "geometry": { "type": "Point", "coordinates": [ -118.46675, 34.044716 ] } },
{ "type": "Feature", "properties": { "X": -118.4674, "Y": 34.05341, "Store_Name": "whole foods market 10074", "Address": "11737 San Vicente Blvd", "Address_Line__2": null, "City": "Los Angeles", "State": "CA", "Zip5": 90049, "Zip4": "5005", "County": "LOS ANGELES", "Longitude": -118.4674, "Latitude": 34.05341, "ObjectId": 11, "store_chain": "Whole Foods", "chain_name": "Whole Foods", "index_right": 10, "name": "Brentwood", "chainstore_counts": 2.0 }, "geometry": { "type": "Point", "coordinates": [ -118.4674, 34.05341 ] } },
{ "type": "Feature", "properties": { "X": -118.34414, "Y": 34.049809, "Store_Name": "sprouts farmers market 437", "Address": "1302 S la Brea Ave", "Address_Line__2": null, "City": "Los Angeles", "State": "CA", "Zip5": 90019, "Zip4": "2915", "County": "LOS ANGELES", "Longitude": -118.34414, "Latitude": 34.049809, "ObjectId": 62, "store_chain": "Sprouts", "chain_name": "Sprouts", "index_right": 61, "name": "Mid-Wilshire", "chainstore_counts": 4.0 }, "geometry": { "type": "Point", "coordinates": [ -118.34414, 34.049809 ] } },
{ "type": "Feature", "properties": { "X": -118.34976, "Y": 34.062347, "Store_Name": "smart & final 371", "Address": "5555 Wilshire Blvd", "Address_Line__2": null, "City": "Los Angeles", "State": "CA", "Zip5": 90036, "Zip4": "3808", "County": "LOS ANGELES", "Longitude": -118.34976, "Latitude": 34.062347, "ObjectId": 62, "store_chain": "Smart & Final", "chain_name": "Smart & Final", "index_right": 61, "name": "Mid-Wilshire", "chainstore_counts": 4.0 }, "geometry": { "type": "Point", "coordinates": [ -118.34976, 34.062347 ] } },
{ "type": "Feature", "properties": { "X": -118.35062, "Y": 34.062378, "Store_Name": "ralphs fresh fare 289", "Address": "5601 Wilshire Blvd", "Address_Line__2": null, "City": "Los Angeles", "State": "CA", "Zip5": 90036, "Zip4": "3701", "County": "LOS ANGELES", "Longitude": -118.35062, "Latitude": 34.062378, "ObjectId": 62, "store_chain": "Ralphs", "chain_name": "Ralphs", "index_right": 61, "name": "Mid-Wilshire", "chainstore_counts": 4.0 }, "geometry": { "type": "Point", "coordinates": [ -118.35062, 34.062378 ] } },
{ "type": "Feature", "properties": { "X": -118.36033, "Y": 34.071331, "Store_Name": "whole foods market 10177", "Address": "6350 W 3rd St", "Address_Line__2": null, "City": "Los Angeles", "State": "CA", "Zip5": 90036, "Zip4": "3155", "County": "LOS ANGELES", "Longitude": -118.36033, "Latitude": 34.071331, "ObjectId": 62, "store_chain": "Whole Foods", "chain_name": "Whole Foods", "index_right": 61, "name": "Mid-Wilshire", "chainstore_counts": 4.0 }, "geometry": { "type": "Point", "coordinates": [ -118.36033, 34.071331 ] } },
{ "type": "Feature", "properties": { "X": -118.43835, "Y": 34.051281, "Store_Name": "sprouts farmers market 0275", "Address": "1751 Westwood Blvd", "Address_Line__2": null, "City": "Los Angeles", "State": "CA", "Zip5": 90024, "Zip4": "5607", "County": "LOS ANGELES", "Longitude": -118.43835, "Latitude": 34.051281, "ObjectId": 109, "store_chain": "Sprouts", "chain_name": "Sprouts", "index_right": 108, "name": "Westwood", "chainstore_counts": 4.0 }, "geometry": { "type": "Point", "coordinates": [ -118.43835, 34.051281 ] } },
{ "type": "Feature", "properties": { "X": -118.44769, "Y": 34.061703, "Store_Name": "whole foods market 10176", "Address": "1050 Gayley Ave", "Address_Line__2": null, "City": "Los Angeles", "State": "CA", "Zip5": 90024, "Zip4": "3402", "County": "LOS ANGELES", "Longitude": -118.44769, "Latitude": 34.061703, "ObjectId": 109, "store_chain": "Whole Foods", "chain_name": "Whole Foods", "index_right": 108, "name": "Westwood", "chainstore_counts": 4.0 }, "geometry": { "type": "Point", "coordinates": [ -118.44769, 34.061703 ] } },
{ "type": "Feature", "properties": { "X": -118.44395, "Y": 34.062477, "Store_Name": "trader joe's 234", "Address": "1000 Glendon Ave", "Address_Line__2": null, "City": "Los Angeles", "State": "CA", "Zip5": 90024, "Zip4": "2908", "County": "LOS ANGELES", "Longitude": -118.44395, "Latitude": 34.062477, "ObjectId": 109, "store_chain": "Trader Joe's", "chain_name": "Trader Joe's", "index_right": 108, "name": "Westwood", "chainstore_counts": 4.0 }, "geometry": { "type": "Point", "coordinates": [ -118.44395, 34.062477 ] } },
{ "type": "Feature", "properties": { "X": -118.44408, "Y": 34.06258, "Store_Name": "ralphs fresh fare 759", "Address": "10861 Weyburn Ave", "Address_Line__2": null, "City": "Los Angeles", "State": "CA", "Zip5": 90024, "Zip4": "2957", "County": "LOS ANGELES", "Longitude": -118.44408, "Latitude": 34.06258, "ObjectId": 109, "store_chain": "Ralphs", "chain_name": "Ralphs", "index_right": 108, "name": "Westwood", "chainstore_counts": 4.0 }, "geometry": { "type": "Point", "coordinates": [ -118.44408, 34.06258 ] } },
{ "type": "Feature", "properties": { "X": -118.41687, "Y": 34.052784, "Store_Name": "ralphs fresh fare 156", "Address": "10309 W Olympic Blvd", "Address_Line__2": null, "City": "Los Angeles", "State": "CA", "Zip5": 90064, "Zip4": "2517", "County": "LOS ANGELES", "Longitude": -118.41687, "Latitude": 34.052784, "ObjectId": 16, "store_chain": "Ralphs", "chain_name": "Ralphs", "index_right": 15, "name": "Century City", "chainstore_counts": 2.0 }, "geometry": { "type": "Point", "coordinates": [ -118.41687, 34.052784 ] } },
{ "type": "Feature", "properties": { "X": -118.41923, "Y": 34.060455, "Store_Name": "gelson's markets 4", "Address": "10250 Santa Monica Blvd", "Address_Line__2": null, "City": "Los Angeles", "State": "CA", "Zip5": 90067, "Zip4": "6501", "County": "LOS ANGELES", "Longitude": -118.41923, "Latitude": 34.060455, "ObjectId": 16, "store_chain": "Gelson's", "chain_name": "Gelson's", "index_right": 15, "name": "Century City", "chainstore_counts": 2.0 }, "geometry": { "type": "Point", "coordinates": [ -118.41923, 34.060455 ] } },
{ "type": "Feature", "properties": { "X": -118.26996, "Y": 34.057281, "Store_Name": "food 4 less 770", "Address": "1700 W 6th St", "Address_Line__2": null, "City": "Los Angeles", "State": "CA", "Zip5": 90017, "Zip4": "1004", "County": "LOS ANGELES", "Longitude": -118.26996, "Latitude": 34.057281, "ObjectId": 107, "store_chain": "Food 4 Less", "chain_name": "Food 4 Less", "index_right": 106, "name": "Westlake", "chainstore_counts": 3.0 }, "geometry": { "type": "Point", "coordinates": [ -118.26996, 34.057281 ] } },
{ "type": "Feature", "properties": { "X": -118.26984, "Y": 34.061737, "Store_Name": "numero uno market 110", "Address": "1831 W 3rd St", "Address_Line__2": null, "City": "Los Angeles", "State": "CA", "Zip5": 90057, "Zip4": "2301", "County": "LOS ANGELES", "Longitude": -118.26984, "Latitude": 34.061737, "ObjectId": 107, "store_chain": "Numero Uno Market", "chain_name": "Numero Uno Market", "index_right": 106, "name": "Westlake", "chainstore_counts": 3.0 }, "geometry": { "type": "Point", "coordinates": [ -118.26984, 34.061737 ] } },
{ "type": "Feature", "properties": { "X": -118.27818, "Y": 34.070065, "Store_Name": "smart & final 459", "Address": "2720 Beverly Blvd", "Address_Line__2": null, "City": "Los Angeles", "State": "CA", "Zip5": 90057, "Zip4": "1008", "County": "LOS ANGELES", "Longitude": -118.27818, "Latitude": 34.070065, "ObjectId": 107, "store_chain": "Smart & Final", "chain_name": "Smart & Final", "index_right": 106, "name": "Westlake", "chainstore_counts": 3.0 }, "geometry": { "type": "Point", "coordinates": [ -118.27818, 34.070065 ] } },
{ "type": "Feature", "properties": { "X": -118.30902, "Y": 34.060799, "Store_Name": "ralphs grocery co. 16", "Address": "670 S Western Ave", "Address_Line__2": null, "City": "Los Angeles", "State": "CA", "Zip5": 90005, "Zip4": "3024", "County": "LOS ANGELES", "Longitude": -118.30902, "Latitude": 34.060799, "ObjectId": 53, "store_chain": "Ralphs", "chain_name": "Ralphs", "index_right": 52, "name": "Koreatown", "chainstore_counts": 3.0 }, "geometry": { "type": "Point", "coordinates": [ -118.30902, 34.060799 ] } },
{ "type": "Feature", "properties": { "X": -118.28962, "Y": 34.069004, "Store_Name": "ralphs grocery company 32", "Address": "3410 W 3rd St", "Address_Line__2": null, "City": "Los Angeles", "State": "CA", "Zip5": 90020, "Zip4": "1622", "County": "LOS ANGELES", "Longitude": -118.28962, "Latitude": 34.069004, "ObjectId": 53, "store_chain": "Ralphs", "chain_name": "Ralphs", "index_right": 52, "name": "Koreatown", "chainstore_counts": 3.0 }, "geometry": { "type": "Point", "coordinates": [ -118.28962, 34.069004 ] } },
{ "type": "Feature", "properties": { "X": -118.29078, "Y": 34.069107, "Store_Name": "vons 2261", "Address": "3461 W 3rd St", "Address_Line__2": null, "City": "Los Angeles", "State": "CA", "Zip5": 90020, "Zip4": "1604", "County": "LOS ANGELES", "Longitude": -118.29078, "Latitude": 34.069107, "ObjectId": 53, "store_chain": "Vons", "chain_name": "Vons", "index_right": 52, "name": "Koreatown", "chainstore_counts": 3.0 }, "geometry": { "type": "Point", "coordinates": [ -118.29078, 34.069107 ] } },
{ "type": "Feature", "properties": { "X": -118.34399, "Y": 34.069412, "Store_Name": "ralphs 39", "Address": "260 S la Brea Ave", "Address_Line__2": null, "City": "Los Angeles", "State": "CA", "Zip5": 90036, "Zip4": "3023", "County": "LOS ANGELES", "Longitude": -118.34399, "Latitude": 34.069412, "ObjectId": 40, "store_chain": "Ralphs", "chain_name": "Ralphs", "index_right": 39, "name": "Hancock Park", "chainstore_counts": 1.0 }, "geometry": { "type": "Point", "coordinates": [ -118.34399, 34.069412 ] } },
{ "type": "Feature", "properties": { "X": -118.3441, "Y": 34.069672, "Store_Name": "trader joe's 31", "Address": "263 S la Brea Ave", "Address_Line__2": null, "City": "Los Angeles", "State": "CA", "Zip5": 90036, "Zip4": "3022", "County": "LOS ANGELES", "Longitude": -118.3441, "Latitude": 34.069672, "ObjectId": 33, "store_chain": "Trader Joe's", "chain_name": "Trader Joe's", "index_right": 32, "name": "Fairfax", "chainstore_counts": 1.0 }, "geometry": { "type": "Point", "coordinates": [ -118.3441, 34.069672 ] } },
{ "type": "Feature", "properties": { "X": -118.3772, "Y": 34.071686, "Store_Name": "trader joe's 237", "Address": "8500 Burton Way", "Address_Line__2": "Ste 100", "City": "Los Angeles", "State": "CA", "Zip5": 90048, "Zip4": "3306", "County": "LOS ANGELES", "Longitude": -118.3772, "Latitude": 34.071686, "ObjectId": 8, "store_chain": "Trader Joe's", "chain_name": "Trader Joe's", "index_right": 7, "name": "Beverly Grove", "chainstore_counts": 2.0 }, "geometry": { "type": "Point", "coordinates": [ -118.3772, 34.071686 ] } },
{ "type": "Feature", "properties": { "X": -118.3615, "Y": 34.073269, "Store_Name": "trader joe's 240", "Address": "175 S Fairfax Ave", "Address_Line__2": null, "City": "Los Angeles", "State": "CA", "Zip5": 90036, "Zip4": "2106", "County": "LOS ANGELES", "Longitude": -118.3615, "Latitude": 34.073269, "ObjectId": 8, "store_chain": "Trader Joe's", "chain_name": "Trader Joe's", "index_right": 7, "name": "Beverly Grove", "chainstore_counts": 2.0 }, "geometry": { "type": "Point", "coordinates": [ -118.3615, 34.073269 ] } },
{ "type": "Feature", "properties": { "X": -118.21571, "Y": 34.075138, "Store_Name": "smart & final 511", "Address": "2511 Daly St", "Address_Line__2": null, "City": "Los Angeles", "State": "CA", "Zip5": 90031, "Zip4": "2222", "County": "LOS ANGELES", "Longitude": -118.21571, "Latitude": 34.075138, "ObjectId": 57, "store_chain": "Smart & Final", "chain_name": "Smart & Final", "index_right": 56, "name": "Lincoln Heights", "chainstore_counts": 1.0 }, "geometry": { "type": "Point", "coordinates": [ -118.21571, 34.075138 ] } },
{ "type": "Feature", "properties": { "X": -118.17598, "Y": 34.087025, "Store_Name": "food 4 less 370", "Address": "4910 Huntington Dr S", "Address_Line__2": null, "City": "Los Angeles", "State": "CA", "Zip5": 90032, "Zip4": "1662", "County": "LOS ANGELES", "Longitude": -118.17598, "Latitude": 34.087025, "ObjectId": 28, "store_chain": "Food 4 Less", "chain_name": "Food 4 Less", "index_right": 27, "name": "El Sereno", "chainstore_counts": 1.0 }, "geometry": { "type": "Point", "coordinates": [ -118.17598, 34.087025 ] } },
{ "type": "Feature", "properties": { "X": -118.26173, "Y": 34.080425, "Store_Name": "vons 3263", "Address": "1342 N Alvarado St", "Address_Line__2": null, "City": "Los Angeles", "State": "CA", "Zip5": 90026, "Zip4": "3129", "County": "LOS ANGELES", "Longitude": -118.26173, "Latitude": 34.080425, "ObjectId": 27, "store_chain": "Vons", "chain_name": "Vons", "index_right": 26, "name": "Echo Park", "chainstore_counts": 1.0 }, "geometry": { "type": "Point", "coordinates": [ -118.26173, 34.080425 ] } },
{ "type": "Feature", "properties": { "X": -118.3092, "Y": 34.087872, "Store_Name": "smart & final 363", "Address": "939 N Western Ave", "Address_Line__2": null, "City": "Los Angeles", "State": "CA", "Zip5": 90029, "Zip4": "3246", "County": "LOS ANGELES", "Longitude": -118.3092, "Latitude": 34.087872, "ObjectId": 26, "store_chain": "Smart & Final", "chain_name": "Smart & Final", "index_right": 25, "name": "East Hollywood", "chainstore_counts": 2.0 }, "geometry": { "type": "Point", "coordinates": [ -118.3092, 34.087872 ] } },
{ "type": "Feature", "properties": { "X": -118.28798, "Y": 34.098122, "Store_Name": "vons 2665", "Address": "4520 W Sunset Blvd", "Address_Line__2": null, "City": "Los Angeles", "State": "CA", "Zip5": 90027, "Zip4": "6057", "County": "LOS ANGELES", "Longitude": -118.28798, "Latitude": 34.098122, "ObjectId": 26, "store_chain": "Vons", "chain_name": "Vons", "index_right": 25, "name": "East Hollywood", "chainstore_counts": 2.0 }, "geometry": { "type": "Point", "coordinates": [ -118.28798, 34.098122 ] } },
{ "type": "Feature", "properties": { "X": -118.3092, "Y": 34.087872, "Store_Name": "smart & final 363", "Address": "939 N Western Ave", "Address_Line__2": null, "City": "Los Angeles", "State": "CA", "Zip5": 90029, "Zip4": "3246", "County": "LOS ANGELES", "Longitude": -118.3092, "Latitude": 34.087872, "ObjectId": 50, "store_chain": "Smart & Final", "chain_name": "Smart & Final", "index_right": 49, "name": "Hollywood", "chainstore_counts": 5.0 }, "geometry": { "type": "Point", "coordinates": [ -118.3092, 34.087872 ] } },
{ "type": "Feature", "properties": { "X": -118.34808, "Y": 34.098026, "Store_Name": "ralphs grocery company 100", "Address": "7257 W Sunset Blvd", "Address_Line__2": null, "City": "Los Angeles", "State": "CA", "Zip5": 90046, "Zip4": "3491", "County": "LOS ANGELES", "Longitude": -118.34808, "Latitude": 34.098026, "ObjectId": 50, "store_chain": "Ralphs", "chain_name": "Ralphs", "index_right": 49, "name": "Hollywood", "chainstore_counts": 5.0 }, "geometry": { "type": "Point", "coordinates": [ -118.34808, 34.098026 ] } },
{ "type": "Feature", "properties": { "X": -118.32664, "Y": 34.09996, "Store_Name": "trader joe's 206", "Address": "1600 Vine St", "Address_Line__2": null, "City": "Los Angeles", "State": "CA", "Zip5": 90028, "Zip4": null, "County": "LOS ANGELES", "Longitude": -118.32664, "Latitude": 34.09996, "ObjectId": 50, "store_chain": "Trader Joe's", "chain_name": "Trader Joe's", "index_right": 49, "name": "Hollywood", "chainstore_counts": 5.0 }, "geometry": { "type": "Point", "coordinates": [ -118.32664, 34.09996 ] } },
{ "type": "Feature", "properties": { "X": -118.34577, "Y": 34.103405, "Store_Name": "sprouts farmers market 285", "Address": "915 N La Brea Ave", "Address_Line__2": null, "City": "Los Angeles", "State": "CA", "Zip5": 90046, "Zip4": "6921", "County": "LOS ANGELES", "Longitude": -118.34577, "Latitude": 34.103405, "ObjectId": 50, "store_chain": "Sprouts", "chain_name": "Sprouts", "index_right": 49, "name": "Hollywood", "chainstore_counts": 5.0 }, "geometry": { "type": "Point", "coordinates": [ -118.34577, 34.103405 ] } },
{ "type": "Feature", "properties": { "X": -118.31764, "Y": 34.105278, "Store_Name": "gelsons market 114", "Address": "5877 Franklin Ave", "Address_Line__2": null, "City": "Los Angeles", "State": "CA", "Zip5": 90028, "Zip4": "5618", "County": "LOS ANGELES", "Longitude": -118.31764, "Latitude": 34.105278, "ObjectId": 50, "store_chain": "Gelson's", "chain_name": "Gelson's", "index_right": 49, "name": "Hollywood", "chainstore_counts": 5.0 }, "geometry": { "type": "Point", "coordinates": [ -118.31764, 34.105278 ] } },
{ "type": "Feature", "properties": { "X": -118.36514, "Y": 34.097961, "Store_Name": "trader joe's 192", "Address": "8000 W Sunset Blvd", "Address_Line__2": "Ste C120", "City": "Los Angeles", "State": "CA", "Zip5": 90046, "Zip4": "2443", "County": "LOS ANGELES", "Longitude": -118.36514, "Latitude": 34.097961, "ObjectId": 49, "store_chain": "Trader Joe's", "chain_name": "Trader Joe's", "index_right": 48, "name": "Hollywood Hills West", "chainstore_counts": 1.0 }, "geometry": { "type": "Point", "coordinates": [ -118.36514, 34.097961 ] } },
{ "type": "Feature", "properties": { "X": -118.20786, "Y": 34.096157, "Store_Name": "superior grocers 129", "Address": "133 W Avenue 45", "Address_Line__2": null, "City": "Los Angeles", "State": "CA", "Zip5": 90065, "Zip4": "3022", "County": "LOS ANGELES", "Longitude": -118.20786, "Latitude": 34.096157, "ObjectId": 46, "store_chain": "Superior Grocers", "chain_name": "Superior Grocers", "index_right": 45, "name": "Highland Park", "chainstore_counts": 4.0 }, "geometry": { "type": "Point", "coordinates": [ -118.20786, 34.096157 ] } },
{ "type": "Feature", "properties": { "X": -118.18826, "Y": 34.111778, "Store_Name": "smart & final 413", "Address": "6060 N Figueroa St", "Address_Line__2": null, "City": "Highland Park", "State": "CA", "Zip5": 90042, "Zip4": "4232", "County": "LOS ANGELES", "Longitude": -118.18826, "Latitude": 34.111778, "ObjectId": 46, "store_chain": "Smart & Final", "chain_name": "Smart & Final", "index_right": 45, "name": "Highland Park", "chainstore_counts": 4.0 }, "geometry": { "type": "Point", "coordinates": [ -118.18826, 34.111778 ] } },
{ "type": "Feature", "properties": { "X": -118.19629, "Y": 34.119305, "Store_Name": "el super 18", "Address": "5610 York Blvd", "Address_Line__2": null, "City": "Los Angeles", "State": "CA", "Zip5": 90042, "Zip4": "2537", "County": "LOS ANGELES", "Longitude": -118.19629, "Latitude": 34.119305, "ObjectId": 46, "store_chain": "El Super", "chain_name": "El Super", "index_right": 45, "name": "Highland Park", "chainstore_counts": 4.0 }, "geometry": { "type": "Point", "coordinates": [ -118.19629, 34.119305 ] } },
{ "type": "Feature", "properties": { "X": -118.20056, "Y": 34.105736, "Store_Name": "food 4 less 766", "Address": "5100 N Figueroa St", "Address_Line__2": null, "City": "Los Angeles", "State": "CA", "Zip5": 90042, "Zip4": "3922", "County": "LOS ANGELES", "Longitude": -118.20056, "Latitude": 34.105736, "ObjectId": 46, "store_chain": "Food 4 Less", "chain_name": "Food 4 Less", "index_right": 45, "name": "Highland Park", "chainstore_counts": 4.0 }, "geometry": { "type": "Point", "coordinates": [ -118.20056, 34.105736 ] } },
{ "type": "Feature", "properties": { "X": -118.27209, "Y": 34.10733, "Store_Name": "trader joe's 17", "Address": "2738 Hyperion Ave", "Address_Line__2": null, "City": "Los Angeles", "State": "CA", "Zip5": 90027, "Zip4": "3002", "County": "LOS ANGELES", "Longitude": -118.27209, "Latitude": 34.10733, "ObjectId": 85, "store_chain": "Trader Joe's", "chain_name": "Trader Joe's", "index_right": 84, "name": "Silver Lake", "chainstore_counts": 2.0 }, "geometry": { "type": "Point", "coordinates": [ -118.27209, 34.10733 ] } },
{ "type": "Feature", "properties": { "X": -118.25919, "Y": 34.103088, "Store_Name": "365 by whole foods market 10658", "Address": "2520 Glendale Blvd", "Address_Line__2": null, "City": "Los Angeles", "State": "CA", "Zip5": 90039, "Zip4": "3220", "County": "LOS ANGELES", "Longitude": -118.25919, "Latitude": 34.103088, "ObjectId": 85, "store_chain": "Whole Foods", "chain_name": "Whole Foods", "index_right": 84, "name": "Silver Lake", "chainstore_counts": 2.0 }, "geometry": { "type": "Point", "coordinates": [ -118.25919, 34.103088 ] } },
{ "type": "Feature", "properties": { "X": -118.27196, "Y": 34.107883, "Store_Name": "gelson's market 22", "Address": "2725 Hyperion Ave", "Address_Line__2": null, "City": "Los Angeles", "State": "CA", "Zip5": 90027, "Zip4": "3001", "County": "LOS ANGELES", "Longitude": -118.27196, "Latitude": 34.107883, "ObjectId": 58, "store_chain": "Gelson's", "chain_name": "Gelson's", "index_right": 57, "name": "Los Feliz", "chainstore_counts": 3.0 }, "geometry": { "type": "Point", "coordinates": [ -118.27196, 34.107883 ] } },
{ "type": "Feature", "properties": { "X": -118.28745, "Y": 34.108631, "Store_Name": "albertsons 387", "Address": "2035 Hillhurst Ave", "Address_Line__2": null, "City": "Los Angeles", "State": "CA", "Zip5": 90027, "Zip4": "2702", "County": "LOS ANGELES", "Longitude": -118.28745, "Latitude": 34.108631, "ObjectId": 58, "store_chain": "Albertsons", "chain_name": "Albertsons", "index_right": 57, "name": "Los Feliz", "chainstore_counts": 3.0 }, "geometry": { "type": "Point", "coordinates": [ -118.28745, 34.108631 ] } },
{ "type": "Feature", "properties": { "X": -118.30795, "Y": 34.101799, "Store_Name": "ralphs  206", "Address": "5429 Hollywood Blvd", "Address_Line__2": null, "City": "Los Angeles", "State": "CA", "Zip5": 90027, "Zip4": "3405", "County": "LOS ANGELES", "Longitude": -118.30795, "Latitude": 34.101799, "ObjectId": 58, "store_chain": "Ralphs", "chain_name": "Ralphs", "index_right": 57, "name": "Los Feliz", "chainstore_counts": 3.0 }, "geometry": { "type": "Point", "coordinates": [ -118.30795, 34.101799 ] } },
{ "type": "Feature", "properties": { "X": -118.36813, "Y": 34.139675, "Store_Name": "ralphs fresh fare 133", "Address": "10901 Ventura Blvd", "Address_Line__2": null, "City": "Studio City", "State": "CA", "Zip5": 91604, "Zip4": "3341", "County": "LOS ANGELES", "Longitude": -118.36813, "Latitude": 34.139675, "ObjectId": 87, "store_chain": "Ralphs", "chain_name": "Ralphs", "index_right": 86, "name": "Studio City", "chainstore_counts": 4.0 }, "geometry": { "type": "Point", "coordinates": [ -118.36813, 34.139675 ] } },
{ "type": "Feature", "properties": { "X": -118.39263, "Y": 34.143475, "Store_Name": "trader joe's 122", "Address": "11976 Ventura Blvd", "Address_Line__2": null, "City": "Studio City", "State": "CA", "Zip5": 91604, "Zip4": "2606", "County": "LOS ANGELES", "Longitude": -118.39263, "Latitude": 34.143475, "ObjectId": 87, "store_chain": "Trader Joe's", "chain_name": "Trader Joe's", "index_right": 86, "name": "Studio City", "chainstore_counts": 4.0 }, "geometry": { "type": "Point", "coordinates": [ -118.39263, 34.143475 ] } },
{ "type": "Feature", "properties": { "X": -118.39572, "Y": 34.144714, "Store_Name": "vons  1674", "Address": "4033 Laurel Canyon Blvd", "Address_Line__2": null, "City": "Studio City", "State": "CA", "Zip5": 91604, "Zip4": "2016", "County": "LOS ANGELES", "Longitude": -118.39572, "Latitude": 34.144714, "ObjectId": 87, "store_chain": "Vons", "chain_name": "Vons", "index_right": 86, "name": "Studio City", "chainstore_counts": 4.0 }, "geometry": { "type": "Point", "coordinates": [ -118.39572, 34.144714 ] } },
{ "type": "Feature", "properties": { "X": -118.41334, "Y": 34.145023, "Store_Name": "ralphs fresh fare 701", "Address": "12842 Ventura Blvd", "Address_Line__2": null, "City": "Studio City", "State": "CA", "Zip5": 91604, "Zip4": "2369", "County": "LOS ANGELES", "Longitude": -118.41334, "Latitude": 34.145023, "ObjectId": 87, "store_chain": "Ralphs", "chain_name": "Ralphs", "index_right": 86, "name": "Studio City", "chainstore_counts": 4.0 }, "geometry": { "type": "Point", "coordinates": [ -118.41334, 34.145023 ] } },
{ "type": "Feature", "properties": { "X": -118.35189, "Y": 34.15218, "Store_Name": "trader joe's 54", "Address": "10130 Riverside Dr", "Address_Line__2": null, "City": "Toluca Lake", "State": "CA", "Zip5": 91602, "Zip4": "2532", "County": "LOS ANGELES", "Longitude": -118.35189, "Latitude": 34.15218, "ObjectId": 92, "store_chain": "Trader Joe's", "chain_name": "Trader Joe's", "index_right": 91, "name": "Toluca Lake", "chainstore_counts": 1.0 }, "geometry": { "type": "Point", "coordinates": [ -118.35189, 34.15218 ] } },
{ "type": "Feature", "properties": { "X": -118.43915, "Y": 34.149368, "Store_Name": "ralph's 222", "Address": "14049 Ventura Blvd", "Address_Line__2": null, "City": "Sherman Oaks", "State": "CA", "Zip5": 91423, "Zip4": null, "County": "LOS ANGELES", "Longitude": -118.43915, "Latitude": 34.149368, "ObjectId": 84, "store_chain": "Ralphs", "chain_name": "Ralphs", "index_right": 83, "name": "Sherman Oaks", "chainstore_counts": 8.0 }, "geometry": { "type": "Point", "coordinates": [ -118.43915, 34.149368 ] } },
{ "type": "Feature", "properties": { "X": -118.44482, "Y": 34.150707, "Store_Name": "whole foods market 10671", "Address": "14311 Ventura Blvd", "Address_Line__2": null, "City": "Sherman Oaks", "State": "CA", "Zip5": 91423, "Zip4": "2716", "County": "LOS ANGELES", "Longitude": -118.44482, "Latitude": 34.150707, "ObjectId": 84, "store_chain": "Whole Foods", "chain_name": "Whole Foods", "index_right": 83, "name": "Sherman Oaks", "chainstore_counts": 8.0 }, "geometry": { "type": "Point", "coordinates": [ -118.44482, 34.150707 ] } },
{ "type": "Feature", "properties": { "X": -118.46665, "Y": 34.152199, "Store_Name": "whole foods market 10038", "Address": "4520 Sepulveda Blvd", "Address_Line__2": null, "City": "Sherman Oaks", "State": "CA", "Zip5": 91403, "Zip4": "4046", "County": "LOS ANGELES", "Longitude": -118.46665, "Latitude": 34.152199, "ObjectId": 84, "store_chain": "Whole Foods", "chain_name": "Whole Foods", "index_right": 83, "name": "Sherman Oaks", "chainstore_counts": 8.0 }, "geometry": { "type": "Point", "coordinates": [ -118.46665, 34.152199 ] } },
{ "type": "Feature", "properties": { "X": -118.44867, "Y": 34.153931, "Store_Name": "gelsons market 16", "Address": "4520 Van Nuys Blvd", "Address_Line__2": null, "City": "Sherman Oaks", "State": "CA", "Zip5": 91403, "Zip4": "2913", "County": "LOS ANGELES", "Longitude": -118.44867, "Latitude": 34.153931, "ObjectId": 84, "store_chain": "Gelson's", "chain_name": "Gelson's", "index_right": 83, "name": "Sherman Oaks", "chainstore_counts": 8.0 }, "geometry": { "type": "Point", "coordinates": [ -118.44867, 34.153931 ] } },
{ "type": "Feature", "properties": { "X": -118.41396, "Y": 34.157684, "Store_Name": "whole foods market 10784", "Address": "12905 Riverside Dr", "Address_Line__2": null, "City": "Sherman Oaks", "State": "CA", "Zip5": 91423, "Zip4": "2209", "County": "LOS ANGELES", "Longitude": -118.41396, "Latitude": 34.157684, "ObjectId": 84, "store_chain": "Whole Foods", "chain_name": "Whole Foods", "index_right": 83, "name": "Sherman Oaks", "chainstore_counts": 8.0 }, "geometry": { "type": "Point", "coordinates": [ -118.41396, 34.157684 ] } },
{ "type": "Feature", "properties": { "X": -118.4407, "Y": 34.157627, "Store_Name": "trader joe's 49", "Address": "14119 Riverside Dr", "Address_Line__2": null, "City": "Sherman Oaks", "State": "CA", "Zip5": 91423, "Zip4": "2312", "County": "LOS ANGELES", "Longitude": -118.4407, "Latitude": 34.157627, "ObjectId": 84, "store_chain": "Trader Joe's", "chain_name": "Trader Joe's", "index_right": 83, "name": "Sherman Oaks", "chainstore_counts": 8.0 }, "geometry": { "type": "Point", "coordinates": [ -118.4407, 34.157627 ] } },
{ "type": "Feature", "properties": { "X": -118.41451, "Y": 34.164898, "Store_Name": "ralphs grocery company 63", "Address": "12921 Magnolia Blvd", "Address_Line__2": null, "City": "Van Nuys", "State": "CA", "Zip5": 91423, "Zip4": "1618", "County": "LOS ANGELES", "Longitude": -118.41451, "Latitude": 34.164898, "ObjectId": 84, "store_chain": "Ralphs", "chain_name": "Ralphs", "index_right": 83, "name": "Sherman Oaks", "chainstore_counts": 8.0 }, "geometry": { "type": "Point", "coordinates": [ -118.41451, 34.164898 ] } },
{ "type": "Feature", "properties": { "X": -118.44772, "Y": 34.172039, "Store_Name": "ralphs 702", "Address": "14440 Burbank Blvd", "Address_Line__2": null, "City": "Sherman Oaks", "State": "CA", "Zip5": 91401, "Zip4": "4823", "County": "LOS ANGELES", "Longitude": -118.44772, "Latitude": 34.172039, "ObjectId": 84, "store_chain": "Ralphs", "chain_name": "Ralphs", "index_right": 83, "name": "Sherman Oaks", "chainstore_counts": 8.0 }, "geometry": { "type": "Point", "coordinates": [ -118.44772, 34.172039 ] } },
{ "type": "Feature", "properties": { "X": -118.21623, "Y": 34.135349, "Store_Name": "sprouts farmers market 403", "Address": "2245 Yosemite Dr", "Address_Line__2": null, "City": "Los Angeles", "State": "CA", "Zip5": 90041, "Zip4": "2618", "County": "LOS ANGELES", "Longitude": -118.21623, "Latitude": 34.135349, "ObjectId": 25, "store_chain": "Sprouts", "chain_name": "Sprouts", "index_right": 24, "name": "Eagle Rock", "chainstore_counts": 3.0 }, "geometry": { "type": "Point", "coordinates": [ -118.21623, 34.135349 ] } },
{ "type": "Feature", "properties": { "X": -118.18827, "Y": 34.136333, "Store_Name": "vons 2655", "Address": "7311 N Figueroa St", "Address_Line__2": null, "City": "Los Angeles", "State": "CA", "Zip5": 90041, "Zip4": "2512", "County": "LOS ANGELES", "Longitude": -118.18827, "Latitude": 34.136333, "ObjectId": 25, "store_chain": "Vons", "chain_name": "Vons", "index_right": 24, "name": "Eagle Rock", "chainstore_counts": 3.0 }, "geometry": { "type": "Point", "coordinates": [ -118.18827, 34.136333 ] } },
{ "type": "Feature", "properties": { "X": -118.20007, "Y": 34.139454, "Store_Name": "trader joe's 55", "Address": "1566 Colorado Blvd", "Address_Line__2": null, "City": "Eagle Rock", "State": "CA", "Zip5": 90041, "Zip4": "1441", "County": "LOS ANGELES", "Longitude": -118.20007, "Latitude": 34.139454, "ObjectId": 25, "store_chain": "Trader Joe's", "chain_name": "Trader Joe's", "index_right": 24, "name": "Eagle Rock", "chainstore_counts": 3.0 }, "geometry": { "type": "Point", "coordinates": [ -118.20007, 34.139454 ] } },
{ "type": "Feature", "properties": { "X": -118.39646, "Y": 34.156666, "Store_Name": "gelsons market 3", "Address": "4738 Laurel Canyon Blvd", "Address_Line__2": null, "City": "Valley Village", "State": "CA", "Zip5": 91607, "Zip4": "3912", "County": "LOS ANGELES", "Longitude": -118.39646, "Latitude": 34.156666, "ObjectId": 96, "store_chain": "Gelson's", "chain_name": "Gelson's", "index_right": 95, "name": "Valley Village", "chainstore_counts": 1.0 }, "geometry": { "type": "Point", "coordinates": [ -118.39646, 34.156666 ] } },
{ "type": "Feature", "properties": { "X": -118.49197, "Y": 34.157475, "Store_Name": "gelson's markets 2", "Address": "16450 Ventura Blvd", "Address_Line__2": null, "City": "Encino", "State": "CA", "Zip5": 91436, "Zip4": "2118", "County": "LOS ANGELES", "Longitude": -118.49197, "Latitude": 34.157475, "ObjectId": 31, "store_chain": "Gelson's", "chain_name": "Gelson's", "index_right": 30, "name": "Encino", "chainstore_counts": 4.0 }, "geometry": { "type": "Point", "coordinates": [ -118.49197, 34.157475 ] } },
{ "type": "Feature", "properties": { "X": -118.50116, "Y": 34.159336, "Store_Name": "smart & final 477", "Address": "16847 Ventura Blvd", "Address_Line__2": null, "City": "Encino", "State": "CA", "Zip5": 91316, "Zip4": null, "County": "LOS ANGELES", "Longitude": -118.50116, "Latitude": 34.159336, "ObjectId": 31, "store_chain": "Smart & Final", "chain_name": "Smart & Final", "index_right": 30, "name": "Encino", "chainstore_counts": 4.0 }, "geometry": { "type": "Point", "coordinates": [ -118.50116, 34.159336 ] } },
{ "type": "Feature", "properties": { "X": -118.52144, "Y": 34.163254, "Store_Name": "ralphs fresh fare 6", "Address": "17840 Ventura Blvd", "Address_Line__2": null, "City": "Encino", "State": "CA", "Zip5": 91316, "Zip4": "3615", "County": "LOS ANGELES", "Longitude": -118.52144, "Latitude": 34.163254, "ObjectId": 31, "store_chain": "Ralphs", "chain_name": "Ralphs", "index_right": 30, "name": "Encino", "chainstore_counts": 4.0 }, "geometry": { "type": "Point", "coordinates": [ -118.52144, 34.163254 ] } },
{ "type": "Feature", "properties": { "X": -118.51774, "Y": 34.172241, "Store_Name": "trader joe's 56", "Address": "17640 Burbank Blvd", "Address_Line__2": null, "City": "Encino", "State": "CA", "Zip5": 91316, "Zip4": "1725", "County": "LOS ANGELES", "Longitude": -118.51774, "Latitude": 34.172241, "ObjectId": 31, "store_chain": "Trader Joe's", "chain_name": "Trader Joe's", "index_right": 30, "name": "Encino", "chainstore_counts": 4.0 }, "geometry": { "type": "Point", "coordinates": [ -118.51774, 34.172241 ] } },
{ "type": "Feature", "properties": { "X": -118.36819, "Y": 34.16486, "Store_Name": "ralphs grocery company 56", "Address": "10900 Magnolia Blvd", "Address_Line__2": null, "City": "North Hollywood", "State": "CA", "Zip5": 91601, "Zip4": "3903", "County": "LOS ANGELES", "Longitude": -118.36819, "Latitude": 34.16486, "ObjectId": 67, "store_chain": "Ralphs", "chain_name": "Ralphs", "index_right": 66, "name": "North Hollywood", "chainstore_counts": 5.0 }, "geometry": { "type": "Point", "coordinates": [ -118.36819, 34.16486 ] } },
{ "type": "Feature", "properties": { "X": -118.36771, "Y": 34.179459, "Store_Name": "vallarta supermarket 9", "Address": "10859 Oxnard St", "Address_Line__2": null, "City": "North Hollywood", "State": "CA", "Zip5": 91606, "Zip4": "5020", "County": "LOS ANGELES", "Longitude": -118.36771, "Latitude": 34.179459, "ObjectId": 67, "store_chain": "Vallarta Spermarkets", "chain_name": "Vallarta Spermarkets", "index_right": 66, "name": "North Hollywood", "chainstore_counts": 5.0 }, "geometry": { "type": "Point", "coordinates": [ -118.36771, 34.179459 ] } },
{ "type": "Feature", "properties": { "X": -118.39645, "Y": 34.181877, "Store_Name": "trader joe's 252", "Address": "6130 Laurel Canyon Blvd", "Address_Line__2": null, "City": "North Hollywood", "State": "CA", "Zip5": 91606, "Zip4": "3209", "County": "LOS ANGELES", "Longitude": -118.39645, "Latitude": 34.181877, "ObjectId": 67, "store_chain": "Trader Joe's", "chain_name": "Trader Joe's", "index_right": 66, "name": "North Hollywood", "chainstore_counts": 5.0 }, "geometry": { "type": "Point", "coordinates": [ -118.39645, 34.181877 ] } },
{ "type": "Feature", "properties": { "X": -118.38506, "Y": 34.18219, "Store_Name": "superior grocers 118", "Address": "6140 Lankershim Blvd", "Address_Line__2": null, "City": "North Hollywood", "State": "CA", "Zip5": 91606, "Zip4": "4808", "County": "LOS ANGELES", "Longitude": -118.38506, "Latitude": 34.18219, "ObjectId": 67, "store_chain": "Superior Grocers", "chain_name": "Superior Grocers", "index_right": 66, "name": "North Hollywood", "chainstore_counts": 5.0 }, "geometry": { "type": "Point", "coordinates": [ -118.38506, 34.18219 ] } },
{ "type": "Feature", "properties": { "X": -118.39655, "Y": 34.190712, "Store_Name": "smart & final 374", "Address": "6601 Laurel Canyon Blvd", "Address_Line__2": null, "City": "North Hollywood", "State": "CA", "Zip5": 91606, "Zip4": "1522", "County": "LOS ANGELES", "Longitude": -118.39655, "Latitude": 34.190712, "ObjectId": 67, "store_chain": "Smart & Final", "chain_name": "Smart & Final", "index_right": 66, "name": "North Hollywood", "chainstore_counts": 5.0 }, "geometry": { "type": "Point", "coordinates": [ -118.39655, 34.190712 ] } },
{ "type": "Feature", "properties": { "X": -118.59241, "Y": 34.166908, "Store_Name": "trader joe's 209", "Address": "21055 Ventura Blvd", "Address_Line__2": null, "City": "Woodland Hills", "State": "CA", "Zip5": 91364, "Zip4": "2202", "County": "LOS ANGELES", "Longitude": -118.59241, "Latitude": 34.166908, "ObjectId": 113, "store_chain": "Trader Joe's", "chain_name": "Trader Joe's", "index_right": 112, "name": "Woodland Hills", "chainstore_counts": 6.0 }, "geometry": { "type": "Point", "coordinates": [ -118.59241, 34.166908 ] } },
{ "type": "Feature", "properties": { "X": -118.61945, "Y": 34.167294, "Store_Name": "smart & final 324", "Address": "22631 Ventura Blvd", "Address_Line__2": null, "City": "Woodland Hills", "State": "CA", "Zip5": 91364, "Zip4": "1416", "County": "LOS ANGELES", "Longitude": -118.61945, "Latitude": 34.167294, "ObjectId": 113, "store_chain": "Smart & Final", "chain_name": "Smart & Final", "index_right": 112, "name": "Woodland Hills", "chainstore_counts": 6.0 }, "geometry": { "type": "Point", "coordinates": [ -118.61945, 34.167294 ] } },
{ "type": "Feature", "properties": { "X": -118.59721, "Y": 34.167839, "Store_Name": "whole foods market 10099", "Address": "21347 Ventura Blvd", "Address_Line__2": null, "City": "Woodland Hills", "State": "CA", "Zip5": 91364, "Zip4": "2007", "County": "LOS ANGELES", "Longitude": -118.59721, "Latitude": 34.167839, "ObjectId": 113, "store_chain": "Whole Foods", "chain_name": "Whole Foods", "index_right": 112, "name": "Woodland Hills", "chainstore_counts": 6.0 }, "geometry": { "type": "Point", "coordinates": [ -118.59721, 34.167839 ] } },
{ "type": "Feature", "properties": { "X": -118.6025, "Y": 34.168476, "Store_Name": "sprouts farmers market 255", "Address": "21821 Ventura Blvd", "Address_Line__2": null, "City": "Woodland Hills", "State": "CA", "Zip5": 91364, "Zip4": "1838", "County": "LOS ANGELES", "Longitude": -118.6025, "Latitude": 34.168476, "ObjectId": 113, "store_chain": "Sprouts", "chain_name": "Sprouts", "index_right": 112, "name": "Woodland Hills", "chainstore_counts": 6.0 }, "geometry": { "type": "Point", "coordinates": [ -118.6025, 34.168476 ] } },
{ "type": "Feature", "properties": { "X": -118.60397, "Y": 34.168476, "Store_Name": "ralphs fresh fare 81", "Address": "21909 Ventura Blvd", "Address_Line__2": null, "City": "Woodland Hills", "State": "CA", "Zip5": 91364, "Zip4": "1725", "County": "LOS ANGELES", "Longitude": -118.60397, "Latitude": 34.168476, "ObjectId": 113, "store_chain": "Ralphs", "chain_name": "Ralphs", "index_right": 112, "name": "Woodland Hills", "chainstore_counts": 6.0 }, "geometry": { "type": "Point", "coordinates": [ -118.60397, 34.168476 ] } },
{ "type": "Feature", "properties": { "X": -118.57051, "Y": 34.171104, "Store_Name": "ralphs fresh fare 70", "Address": "20060 Ventura Blvd", "Address_Line__2": null, "City": "Woodland Hills", "State": "CA", "Zip5": 91364, "Zip4": "2637", "County": "LOS ANGELES", "Longitude": -118.57051, "Latitude": 34.171104, "ObjectId": 113, "store_chain": "Ralphs", "chain_name": "Ralphs", "index_right": 112, "name": "Woodland Hills", "chainstore_counts": 6.0 }, "geometry": { "type": "Point", "coordinates": [ -118.57051, 34.171104 ] } },
{ "type": "Feature", "properties": { "X": -118.53473, "Y": 34.168266, "Store_Name": "vons 2066", "Address": "18439 Ventura Blvd", "Address_Line__2": null, "City": "Tarzana", "State": "CA", "Zip5": 91356, "Zip4": "4201", "County": "LOS ANGELES", "Longitude": -118.53473, "Latitude": 34.168266, "ObjectId": 91, "store_chain": "Vons", "chain_name": "Vons", "index_right": 90, "name": "Tarzana", "chainstore_counts": 3.0 }, "geometry": { "type": "Point", "coordinates": [ -118.53473, 34.168266 ] } },
{ "type": "Feature", "properties": { "X": -118.53596, "Y": 34.170132, "Store_Name": "gelson's markets 5", "Address": "5500 Reseda Blvd", "Address_Line__2": null, "City": "Tarzana", "State": "CA", "Zip5": 91356, "Zip4": "2608", "County": "LOS ANGELES", "Longitude": -118.53596, "Latitude": 34.170132, "ObjectId": 91, "store_chain": "Gelson's", "chain_name": "Gelson's", "index_right": 90, "name": "Tarzana", "chainstore_counts": 3.0 }, "geometry": { "type": "Point", "coordinates": [ -118.53596, 34.170132 ] } },
{ "type": "Feature", "properties": { "X": -118.54077, "Y": 34.170639, "Store_Name": "whole foods market 10282", "Address": "18700 Ventura Blvd", "Address_Line__2": null, "City": "Tarzana", "State": "CA", "Zip5": 91356, "Zip4": "3303", "County": "LOS ANGELES", "Longitude": -118.54077, "Latitude": 34.170639, "ObjectId": 91, "store_chain": "Whole Foods", "chain_name": "Whole Foods", "index_right": 90, "name": "Tarzana", "chainstore_counts": 3.0 }, "geometry": { "type": "Point", "coordinates": [ -118.54077, 34.170639 ] } },
{ "type": "Feature", "properties": { "X": -118.62634, "Y": 34.186474, "Store_Name": "ralphs grocery co. 213", "Address": "22915 Victory Blvd", "Address_Line__2": null, "City": "West Hills", "State": "CA", "Zip5": 91307, "Zip4": "3533", "County": "LOS ANGELES", "Longitude": -118.62634, "Latitude": 34.186474, "ObjectId": 106, "store_chain": "Ralphs", "chain_name": "Ralphs", "index_right": 105, "name": "West Hills", "chainstore_counts": 4.0 }, "geometry": { "type": "Point", "coordinates": [ -118.62634, 34.186474 ] } },
{ "type": "Feature", "properties": { "X": -118.62257, "Y": 34.187366, "Store_Name": "aldi 79048", "Address": "22741 Victory Blvd", "Address_Line__2": null, "City": "West Hills", "State": "CA", "Zip5": 91307, "Zip4": "3637", "County": "LOS ANGELES", "Longitude": -118.62257, "Latitude": 34.187366, "ObjectId": 106, "store_chain": "Aldi", "chain_name": "Aldi", "index_right": 105, "name": "West Hills", "chainstore_counts": 4.0 }, "geometry": { "type": "Point", "coordinates": [ -118.62257, 34.187366 ] } },
{ "type": "Feature", "properties": { "X": -118.62346, "Y": 34.18964, "Store_Name": "sprouts farmers market 272", "Address": "6607 Fallbrook Ave", "Address_Line__2": null, "City": "West Hills", "State": "CA", "Zip5": 91307, "Zip4": "3520", "County": "LOS ANGELES", "Longitude": -118.62346, "Latitude": 34.18964, "ObjectId": 106, "store_chain": "Sprouts", "chain_name": "Sprouts", "index_right": 105, "name": "West Hills", "chainstore_counts": 4.0 }, "geometry": { "type": "Point", "coordinates": [ -118.62346, 34.18964 ] } },
{ "type": "Feature", "properties": { "X": -118.62347, "Y": 34.192383, "Store_Name": "trader joe's 50", "Address": "6751 Fallbrook Ave", "Address_Line__2": null, "City": "West Hills", "State": "CA", "Zip5": 91307, "Zip4": "3948", "County": "LOS ANGELES", "Longitude": -118.62347, "Latitude": 34.192383, "ObjectId": 106, "store_chain": "Trader Joe's", "chain_name": "Trader Joe's", "index_right": 105, "name": "West Hills", "chainstore_counts": 4.0 }, "geometry": { "type": "Point", "coordinates": [ -118.62347, 34.192383 ] } },
{ "type": "Feature", "properties": { "X": -118.55444, "Y": 34.186596, "Store_Name": "vons 2039", "Address": "19333 Victory Blvd", "Address_Line__2": null, "City": "Tarzana", "State": "CA", "Zip5": 91335, "Zip4": "6302", "County": "LOS ANGELES", "Longitude": -118.55444, "Latitude": 34.186596, "ObjectId": 79, "store_chain": "Vons", "chain_name": "Vons", "index_right": 78, "name": "Reseda", "chainstore_counts": 3.0 }, "geometry": { "type": "Point", "coordinates": [ -118.55444, 34.186596 ] } },
{ "type": "Feature", "properties": { "X": -118.53301, "Y": 34.193825, "Store_Name": "food 4 less 348", "Address": "18318 Vanowen St", "Address_Line__2": null, "City": "Reseda", "State": "CA", "Zip5": 91335, "Zip4": "5438", "County": "LOS ANGELES", "Longitude": -118.53301, "Latitude": 34.193825, "ObjectId": 79, "store_chain": "Food 4 Less", "chain_name": "Food 4 Less", "index_right": 78, "name": "Reseda", "chainstore_counts": 3.0 }, "geometry": { "type": "Point", "coordinates": [ -118.53301, 34.193825 ] } },
{ "type": "Feature", "properties": { "X": -118.55429, "Y": 34.208378, "Store_Name": "albertsons 2305", "Address": "19307 Saticoy St", "Address_Line__2": null, "City": "Reseda", "State": "CA", "Zip5": 91335, "Zip4": "2330", "County": "LOS ANGELES", "Longitude": -118.55429, "Latitude": 34.208378, "ObjectId": 79, "store_chain": "Albertsons", "chain_name": "Albertsons", "index_right": 78, "name": "Reseda", "chainstore_counts": 3.0 }, "geometry": { "type": "Point", "coordinates": [ -118.55429, 34.208378 ] } },
{ "type": "Feature", "properties": { "X": -118.41693, "Y": 34.189026, "Store_Name": "vallarta supermarket 1", "Address": "13051 Victory Blvd", "Address_Line__2": null, "City": "Valley Glen", "State": "CA", "Zip5": 91606, "Zip4": null, "County": "LOS ANGELES", "Longitude": -118.41693, "Latitude": 34.189026, "ObjectId": 95, "store_chain": "Vallarta Spermarkets", "chain_name": "Vallarta Spermarkets", "index_right": 94, "name": "Valley Glen", "chainstore_counts": 2.0 }, "geometry": { "type": "Point", "coordinates": [ -118.41693, 34.189026 ] } },
{ "type": "Feature", "properties": { "X": -118.41003, "Y": 34.201267, "Store_Name": "el super 5", "Address": "12727 Sherman Way", "Address_Line__2": null, "City": "North Hollywood", "State": "CA", "Zip5": 91605, "Zip4": "5032", "County": "LOS ANGELES", "Longitude": -118.41003, "Latitude": 34.201267, "ObjectId": 95, "store_chain": "El Super", "chain_name": "El Super", "index_right": 94, "name": "Valley Glen", "chainstore_counts": 2.0 }, "geometry": { "type": "Point", "coordinates": [ -118.41003, 34.201267 ] } },
{ "type": "Feature", "properties": { "X": -118.43191, "Y": 34.19397, "Store_Name": "vallarta supermarket 2", "Address": "13715 Vanowen St", "Address_Line__2": null, "City": "Van Nuys", "State": "CA", "Zip5": 91405, "Zip4": "4118", "County": "LOS ANGELES", "Longitude": -118.43191, "Latitude": 34.19397, "ObjectId": 97, "store_chain": "Vallarta Spermarkets", "chain_name": "Vallarta Spermarkets", "index_right": 96, "name": "Van Nuys", "chainstore_counts": 4.0 }, "geometry": { "type": "Point", "coordinates": [ -118.43191, 34.19397 ] } },
{ "type": "Feature", "properties": { "X": -118.483, "Y": 34.200371, "Store_Name": "vallarta supermarket 106", "Address": "16040 Sherman Way", "Address_Line__2": null, "City": "Van Nuys", "State": "CA", "Zip5": 91406, "Zip4": "4022", "County": "LOS ANGELES", "Longitude": -118.483, "Latitude": 34.200371, "ObjectId": 97, "store_chain": "Vallarta Spermarkets", "chain_name": "Vallarta Spermarkets", "index_right": 96, "name": "Van Nuys", "chainstore_counts": 4.0 }, "geometry": { "type": "Point", "coordinates": [ -118.483, 34.200371 ] } },
{ "type": "Feature", "properties": { "X": -118.49272, "Y": 34.201073, "Store_Name": "food 4 less  323", "Address": "16530 Sherman Way", "Address_Line__2": null, "City": "Van Nuys", "State": "CA", "Zip5": 91406, "Zip4": "3731", "County": "LOS ANGELES", "Longitude": -118.49272, "Latitude": 34.201073, "ObjectId": 97, "store_chain": "Food 4 Less", "chain_name": "Food 4 Less", "index_right": 96, "name": "Van Nuys", "chainstore_counts": 4.0 }, "geometry": { "type": "Point", "coordinates": [ -118.49272, 34.201073 ] } },
{ "type": "Feature", "properties": { "X": -118.43131, "Y": 34.201717, "Store_Name": "ralphs 47", "Address": "7221-25 Woodman Ave", "Address_Line__2": null, "City": "Van Nuys", "State": "CA", "Zip5": 91405, "Zip4": "2621", "County": "LOS ANGELES", "Longitude": -118.43131, "Latitude": 34.201717, "ObjectId": 97, "store_chain": "Ralphs", "chain_name": "Ralphs", "index_right": 96, "name": "Van Nuys", "chainstore_counts": 4.0 }, "geometry": { "type": "Point", "coordinates": [ -118.43131, 34.201717 ] } },
{ "type": "Feature", "properties": { "X": -118.56328, "Y": 34.193848, "Store_Name": "vallarta supermarket 24", "Address": "19725 Vanowen St", "Address_Line__2": null, "City": "Winnetka", "State": "CA", "Zip5": 91306, "Zip4": "3927", "County": "LOS ANGELES", "Longitude": -118.56328, "Latitude": 34.193848, "ObjectId": 112, "store_chain": "Vallarta Spermarkets", "chain_name": "Vallarta Spermarkets", "index_right": 111, "name": "Winnetka", "chainstore_counts": 3.0 }, "geometry": { "type": "Point", "coordinates": [ -118.56328, 34.193848 ] } },
{ "type": "Feature", "properties": { "X": -118.57969, "Y": 34.202129, "Store_Name": "smart & final 512", "Address": "7224 Mason Ave", "Address_Line__2": null, "City": "Winnetka", "State": "CA", "Zip5": 91306, "Zip4": "2820", "County": "LOS ANGELES", "Longitude": -118.57969, "Latitude": 34.202129, "ObjectId": 112, "store_chain": "Smart & Final", "chain_name": "Smart & Final", "index_right": 111, "name": "Winnetka", "chainstore_counts": 3.0 }, "geometry": { "type": "Point", "coordinates": [ -118.57969, 34.202129 ] } },
{ "type": "Feature", "properties": { "X": -118.57261, "Y": 34.208427, "Store_Name": "food 4 less 326", "Address": "20155 Saticoy St", "Address_Line__2": null, "City": "Canoga Park", "State": "CA", "Zip5": 91306, "Zip4": "2506", "County": "LOS ANGELES", "Longitude": -118.57261, "Latitude": 34.208427, "ObjectId": 112, "store_chain": "Food 4 Less", "chain_name": "Food 4 Less", "index_right": 111, "name": "Winnetka", "chainstore_counts": 3.0 }, "geometry": { "type": "Point", "coordinates": [ -118.57261, 34.208427 ] } },
{ "type": "Feature", "properties": { "X": -118.61353, "Y": 34.201088, "Store_Name": "ralphs  721", "Address": "22333 Sherman Way", "Address_Line__2": null, "City": "Canoga Park", "State": "CA", "Zip5": 91303, "Zip4": "1050", "County": "LOS ANGELES", "Longitude": -118.61353, "Latitude": 34.201088, "ObjectId": 13, "store_chain": "Ralphs", "chain_name": "Ralphs", "index_right": 12, "name": "Canoga Park", "chainstore_counts": 2.0 }, "geometry": { "type": "Point", "coordinates": [ -118.61353, 34.201088 ] } },
{ "type": "Feature", "properties": { "X": -118.60605, "Y": 34.217644, "Store_Name": "vallarta supermarket 112", "Address": "8201 Topanga Canyon Blvd", "Address_Line__2": null, "City": "Canoga Park", "State": "CA", "Zip5": 91304, "Zip4": null, "County": "LOS ANGELES", "Longitude": -118.60605, "Latitude": 34.217644, "ObjectId": 13, "store_chain": "Vallarta Spermarkets", "chain_name": "Vallarta Spermarkets", "index_right": 12, "name": "Canoga Park", "chainstore_counts": 2.0 }, "geometry": { "type": "Point", "coordinates": [ -118.60605, 34.217644 ] } },
{ "type": "Feature", "properties": { "X": -118.50904, "Y": 34.208393, "Store_Name": "ralphs grocery company 189", "Address": "17250 Saticoy St", "Address_Line__2": null, "City": "Van Nuys", "State": "CA", "Zip5": 91406, "Zip4": "2103", "County": "LOS ANGELES", "Longitude": -118.50904, "Latitude": 34.208393, "ObjectId": 114, "store_chain": "Ralphs", "chain_name": "Ralphs", "index_right": 113, "name": "Lake Balboa", "chainstore_counts": 1.0 }, "geometry": { "type": "Point", "coordinates": [ -118.50904, 34.208393 ] } },
{ "type": "Feature", "properties": { "X": -118.44924, "Y": 34.212185, "Store_Name": "smart & final 349", "Address": "7815 Van Nuys Blvd", "Address_Line__2": null, "City": "Van Nuys", "State": "CA", "Zip5": 91402, "Zip4": "6007", "County": "LOS ANGELES", "Longitude": -118.44924, "Latitude": 34.212185, "ObjectId": 72, "store_chain": "Smart & Final", "chain_name": "Smart & Final", "index_right": 71, "name": "Panorama City", "chainstore_counts": 5.0 }, "geometry": { "type": "Point", "coordinates": [ -118.44924, 34.212185 ] } },
{ "type": "Feature", "properties": { "X": -118.45113, "Y": 34.221489, "Store_Name": "aldi 87", "Address": "14626 W Roscoe Blvd", "Address_Line__2": null, "City": "Los Angeles", "State": "CA", "Zip5": 91402, "Zip4": null, "County": "LOS ANGELES", "Longitude": -118.45113, "Latitude": 34.221489, "ObjectId": 72, "store_chain": "Aldi", "chain_name": "Aldi", "index_right": 71, "name": "Panorama City", "chainstore_counts": 5.0 }, "geometry": { "type": "Point", "coordinates": [ -118.45113, 34.221489 ] } },
{ "type": "Feature", "properties": { "X": -118.45165, "Y": 34.224899, "Store_Name": "food 4 less 314", "Address": "8530 Tobias Ave", "Address_Line__2": null, "City": "Panorama City", "State": "CA", "Zip5": 91402, "Zip4": "2995", "County": "LOS ANGELES", "Longitude": -118.45165, "Latitude": 34.224899, "ObjectId": 72, "store_chain": "Food 4 Less", "chain_name": "Food 4 Less", "index_right": 71, "name": "Panorama City", "chainstore_counts": 5.0 }, "geometry": { "type": "Point", "coordinates": [ -118.45165, 34.224899 ] } },
{ "type": "Feature", "properties": { "X": -118.4513, "Y": 34.227596, "Store_Name": "el super 2", "Address": "14620 Parthenia St", "Address_Line__2": null, "City": "Panorama City", "State": "CA", "Zip5": 91402, "Zip4": "2988", "County": "LOS ANGELES", "Longitude": -118.4513, "Latitude": 34.227596, "ObjectId": 72, "store_chain": "El Super", "chain_name": "El Super", "index_right": 71, "name": "Panorama City", "chainstore_counts": 5.0 }, "geometry": { "type": "Point", "coordinates": [ -118.4513, 34.227596 ] } },
{ "type": "Feature", "properties": { "X": -118.43913, "Y": 34.233494, "Store_Name": "vallarta supermarket 26", "Address": "9011 Woodman Ave", "Address_Line__2": null, "City": "Arleta", "State": "CA", "Zip5": 91331, "Zip4": "6404", "County": "LOS ANGELES", "Longitude": -118.43913, "Latitude": 34.233494, "ObjectId": 72, "store_chain": "Vallarta Spermarkets", "chain_name": "Vallarta Spermarkets", "index_right": 71, "name": "Panorama City", "chainstore_counts": 5.0 }, "geometry": { "type": "Point", "coordinates": [ -118.43913, 34.233494 ] } },
{ "type": "Feature", "properties": { "X": -118.38907, "Y": 34.21711, "Store_Name": "food 4 less  332", "Address": "8035 Webb Ave", "Address_Line__2": null, "City": "North Hollywood", "State": "CA", "Zip5": 91605, "Zip4": "1505", "County": "LOS ANGELES", "Longitude": -118.38907, "Latitude": 34.21711, "ObjectId": 89, "store_chain": "Food 4 Less", "chain_name": "Food 4 Less", "index_right": 88, "name": "Sun Valley", "chainstore_counts": 2.0 }, "geometry": { "type": "Point", "coordinates": [ -118.38907, 34.21711 ] } },
{ "type": "Feature", "properties": { "X": -118.3965, "Y": 34.222683, "Store_Name": "ralphs grocery company 17", "Address": "8325 Laurel Canyon Blvd", "Address_Line__2": null, "City": "Sun Valley", "State": "CA", "Zip5": 91352, "Zip4": "3809", "County": "LOS ANGELES", "Longitude": -118.3965, "Latitude": 34.222683, "ObjectId": 89, "store_chain": "Ralphs", "chain_name": "Ralphs", "index_right": 88, "name": "Sun Valley", "chainstore_counts": 2.0 }, "geometry": { "type": "Point", "coordinates": [ -118.3965, 34.222683 ] } },
{ "type": "Feature", "properties": { "X": -118.53612, "Y": 34.224369, "Store_Name": "vallarta supermarket 5", "Address": "8453 Reseda Blvd", "Address_Line__2": null, "City": "Northridge", "State": "CA", "Zip5": 91324, "Zip4": "4625", "County": "LOS ANGELES", "Longitude": -118.53612, "Latitude": 34.224369, "ObjectId": 68, "store_chain": "Vallarta Spermarkets", "chain_name": "Vallarta Spermarkets", "index_right": 67, "name": "Northridge", "chainstore_counts": 4.0 }, "geometry": { "type": "Point", "coordinates": [ -118.53612, 34.224369 ] } },
{ "type": "Feature", "properties": { "X": -118.50246, "Y": 34.235123, "Store_Name": "albertsons 359", "Address": "9022 Balboa Blvd", "Address_Line__2": null, "City": "Northridge", "State": "CA", "Zip5": 91325, "Zip4": "2610", "County": "LOS ANGELES", "Longitude": -118.50246, "Latitude": 34.235123, "ObjectId": 68, "store_chain": "Albertsons", "chain_name": "Albertsons", "index_right": 67, "name": "Northridge", "chainstore_counts": 4.0 }, "geometry": { "type": "Point", "coordinates": [ -118.50246, 34.235123 ] } },
{ "type": "Feature", "properties": { "X": -118.55523, "Y": 34.235424, "Store_Name": "aldi 79057", "Address": "19350 Nordhoff", "Address_Line__2": null, "City": "Los Angeles", "State": "CA", "Zip5": 91324, "Zip4": null, "County": "LOS ANGELES", "Longitude": -118.55523, "Latitude": 34.235424, "ObjectId": 68, "store_chain": "Aldi", "chain_name": "Aldi", "index_right": 67, "name": "Northridge", "chainstore_counts": 4.0 }, "geometry": { "type": "Point", "coordinates": [ -118.55523, 34.235424 ] } },
{ "type": "Feature", "properties": { "X": -118.53613, "Y": 34.236153, "Store_Name": "vons 2078", "Address": "9119 Reseda Blvd", "Address_Line__2": null, "City": "Northridge", "State": "CA", "Zip5": 91324, "Zip4": "3031", "County": "LOS ANGELES", "Longitude": -118.53613, "Latitude": 34.236153, "ObjectId": 68, "store_chain": "Vons", "chain_name": "Vons", "index_right": 67, "name": "Northridge", "chainstore_counts": 4.0 }, "geometry": { "type": "Point", "coordinates": [ -118.53613, 34.236153 ] } },
{ "type": "Feature", "properties": { "X": -118.48673, "Y": 34.228367, "Store_Name": "food 4 less  354", "Address": "16208 Parthenia St", "Address_Line__2": null, "City": "North Hills", "State": "CA", "Zip5": 91343, "Zip4": "4704", "County": "LOS ANGELES", "Longitude": -118.48673, "Latitude": 34.228367, "ObjectId": 66, "store_chain": "Food 4 Less", "chain_name": "Food 4 Less", "index_right": 65, "name": "North Hills", "chainstore_counts": 4.0 }, "geometry": { "type": "Point", "coordinates": [ -118.48673, 34.228367 ] } },
{ "type": "Feature", "properties": { "X": -118.46744, "Y": 34.236504, "Store_Name": "vallarta supermarket 8", "Address": "9136 Sepulveda Blvd", "Address_Line__2": null, "City": "North Hills", "State": "CA", "Zip5": 91343, "Zip4": "3921", "County": "LOS ANGELES", "Longitude": -118.46744, "Latitude": 34.236504, "ObjectId": 66, "store_chain": "Vallarta Spermarkets", "chain_name": "Vallarta Spermarkets", "index_right": 65, "name": "North Hills", "chainstore_counts": 4.0 }, "geometry": { "type": "Point", "coordinates": [ -118.46744, 34.236504 ] } },
{ "type": "Feature", "properties": { "X": -118.48508, "Y": 34.257381, "Store_Name": "smart & final 460", "Address": "16210 Devonshire St", "Address_Line__2": null, "City": "Granada Hills", "State": "CA", "Zip5": 91344, "Zip4": "6909", "County": "LOS ANGELES", "Longitude": -118.48508, "Latitude": 34.257381, "ObjectId": 66, "store_chain": "Smart & Final", "chain_name": "Smart & Final", "index_right": 65, "name": "North Hills", "chainstore_counts": 4.0 }, "geometry": { "type": "Point", "coordinates": [ -118.48508, 34.257381 ] } },
{ "type": "Feature", "properties": { "X": -118.50149, "Y": 34.257504, "Store_Name": "ralphs 704", "Address": "16940 Devonshire St", "Address_Line__2": null, "City": "Granada Hills", "State": "CA", "Zip5": 91344, "Zip4": "7406", "County": "LOS ANGELES", "Longitude": -118.50149, "Latitude": 34.257504, "ObjectId": 66, "store_chain": "Ralphs", "chain_name": "Ralphs", "index_right": 65, "name": "North Hills", "chainstore_counts": 4.0 }, "geometry": { "type": "Point", "coordinates": [ -118.50149, 34.257504 ] } },
{ "type": "Feature", "properties": { "X": -118.26756, "Y": 34.241257, "Store_Name": "albertson's 3175", "Address": "6240 Foothill Blvd", "Address_Line__2": null, "City": "Tujunga", "State": "CA", "Zip5": 91042, "Zip4": "2724", "County": "LOS ANGELES", "Longitude": -118.26756, "Latitude": 34.241257, "ObjectId": 93, "store_chain": "Albertsons", "chain_name": "Albertsons", "index_right": 92, "name": "Tujunga", "chainstore_counts": 3.0 }, "geometry": { "type": "Point", "coordinates": [ -118.26756, 34.241257 ] } },
{ "type": "Feature", "properties": { "X": -118.27515, "Y": 34.246037, "Store_Name": "smart & final 414", "Address": "6555 Foothill Blvd", "Address_Line__2": null, "City": "Tujunga", "State": "CA", "Zip5": 91042, "Zip4": "2728", "County": "LOS ANGELES", "Longitude": -118.27515, "Latitude": 34.246037, "ObjectId": 93, "store_chain": "Smart & Final", "chain_name": "Smart & Final", "index_right": 92, "name": "Tujunga", "chainstore_counts": 3.0 }, "geometry": { "type": "Point", "coordinates": [ -118.27515, 34.246037 ] } },
{ "type": "Feature", "properties": { "X": -118.30238, "Y": 34.258842, "Store_Name": "vons 2124", "Address": "7789 Foothill Blvd", "Address_Line__2": null, "City": "Tujunga", "State": "CA", "Zip5": 91042, "Zip4": "2137", "County": "LOS ANGELES", "Longitude": -118.30238, "Latitude": 34.258842, "ObjectId": 93, "store_chain": "Vons", "chain_name": "Vons", "index_right": 92, "name": "Tujunga", "chainstore_counts": 3.0 }, "geometry": { "type": "Point", "coordinates": [ -118.30238, 34.258842 ] } },
{ "type": "Feature", "properties": { "X": -118.4172, "Y": 34.244602, "Store_Name": "food 4 less  309", "Address": "9635 Laurel Canyon Blvd", "Address_Line__2": null, "City": "Arleta", "State": "CA", "Zip5": 91331, "Zip4": "4298", "County": "LOS ANGELES", "Longitude": -118.4172, "Latitude": 34.244602, "ObjectId": 70, "store_chain": "Food 4 Less", "chain_name": "Food 4 Less", "index_right": 69, "name": "Pacoima", "chainstore_counts": 6.0 }, "geometry": { "type": "Point", "coordinates": [ -118.4172, 34.244602 ] } },
{ "type": "Feature", "properties": { "X": -118.4206, "Y": 34.247841, "Store_Name": "superior grocers 111", "Address": "9801 Laurel Canyon Blvd", "Address_Line__2": null, "City": "Pacoima", "State": "CA", "Zip5": 91331, "Zip4": "4039", "County": "LOS ANGELES", "Longitude": -118.4206, "Latitude": 34.247841, "ObjectId": 70, "store_chain": "Superior Grocers", "chain_name": "Superior Grocers", "index_right": 69, "name": "Pacoima", "chainstore_counts": 6.0 }, "geometry": { "type": "Point", "coordinates": [ -118.4206, 34.247841 ] } },
{ "type": "Feature", "properties": { "X": -118.41067, "Y": 34.255249, "Store_Name": "vallarta supermarket 18", "Address": "10175 San Fernando Rd", "Address_Line__2": null, "City": "Pacoima", "State": "CA", "Zip5": 91331, "Zip4": "2616", "County": "LOS ANGELES", "Longitude": -118.41067, "Latitude": 34.255249, "ObjectId": 70, "store_chain": "Vallarta Spermarkets", "chain_name": "Vallarta Spermarkets", "index_right": 69, "name": "Pacoima", "chainstore_counts": 6.0 }, "geometry": { "type": "Point", "coordinates": [ -118.41067, 34.255249 ] } },
{ "type": "Feature", "properties": { "X": -118.43333, "Y": 34.25993, "Store_Name": "numero uno market 111", "Address": "10455 Laurel Canyon Blvd", "Address_Line__2": null, "City": "Pacoima", "State": "CA", "Zip5": 91331, "Zip4": "3605", "County": "LOS ANGELES", "Longitude": -118.43333, "Latitude": 34.25993, "ObjectId": 70, "store_chain": "Numero Uno Market", "chain_name": "Numero Uno Market", "index_right": 69, "name": "Pacoima", "chainstore_counts": 6.0 }, "geometry": { "type": "Point", "coordinates": [ -118.43333, 34.25993 ] } },
{ "type": "Feature", "properties": { "X": -118.42455, "Y": 34.26836, "Store_Name": "smart & final 372", "Address": "10893 San Fernando Rd", "Address_Line__2": null, "City": "Pacoima", "State": "CA", "Zip5": 91331, "Zip4": "2629", "County": "LOS ANGELES", "Longitude": -118.42455, "Latitude": 34.26836, "ObjectId": 70, "store_chain": "Smart & Final", "chain_name": "Smart & Final", "index_right": 69, "name": "Pacoima", "chainstore_counts": 6.0 }, "geometry": { "type": "Point", "coordinates": [ -118.42455, 34.26836 ] } },
{ "type": "Feature", "properties": { "X": -118.41068, "Y": 34.274464, "Store_Name": "food 4 less 377", "Address": "12765 Van Nuys Blvd", "Address_Line__2": null, "City": "Pacoima", "State": "CA", "Zip5": 91331, "Zip4": "1627", "County": "LOS ANGELES", "Longitude": -118.41068, "Latitude": 34.274464, "ObjectId": 70, "store_chain": "Food 4 Less", "chain_name": "Food 4 Less", "index_right": 69, "name": "Pacoima", "chainstore_counts": 6.0 }, "geometry": { "type": "Point", "coordinates": [ -118.41068, 34.274464 ] } },
{ "type": "Feature", "properties": { "X": -118.44759, "Y": 34.24622, "Store_Name": "el super 12", "Address": "9710 Woodman Ave", "Address_Line__2": null, "City": "Arleta", "State": "CA", "Zip5": 91331, "Zip4": "6422", "County": "LOS ANGELES", "Longitude": -118.44759, "Latitude": 34.24622, "ObjectId": 2, "store_chain": "El Super", "chain_name": "El Super", "index_right": 1, "name": "Arleta", "chainstore_counts": 1.0 }, "geometry": { "type": "Point", "coordinates": [ -118.44759, 34.24622 ] } },
{ "type": "Feature", "properties": { "X": -118.5789, "Y": 34.257233, "Store_Name": "vons 1671", "Address": "20440 Devonshire St", "Address_Line__2": null, "City": "Chatsworth", "State": "CA", "Zip5": 91311, "Zip4": "3412", "County": "LOS ANGELES", "Longitude": -118.5789, "Latitude": 34.257233, "ObjectId": 17, "store_chain": "Vons", "chain_name": "Vons", "index_right": 16, "name": "Chatsworth", "chainstore_counts": 4.0 }, "geometry": { "type": "Point", "coordinates": [ -118.5789, 34.257233 ] } },
{ "type": "Feature", "properties": { "X": -118.59777, "Y": 34.257298, "Store_Name": "ralphs 710", "Address": "21431 Devonshire St", "Address_Line__2": null, "City": "Chatsworth", "State": "CA", "Zip5": 91311, "Zip4": "2935", "County": "LOS ANGELES", "Longitude": -118.59777, "Latitude": 34.257298, "ObjectId": 17, "store_chain": "Ralphs", "chain_name": "Ralphs", "index_right": 16, "name": "Chatsworth", "chainstore_counts": 4.0 }, "geometry": { "type": "Point", "coordinates": [ -118.59777, 34.257298 ] } },
{ "type": "Feature", "properties": { "X": -118.57977, "Y": 34.257908, "Store_Name": "trader joe's 184", "Address": "10330 Mason Ave", "Address_Line__2": null, "City": "Chatsworth", "State": "CA", "Zip5": 91311, "Zip4": "3305", "County": "LOS ANGELES", "Longitude": -118.57977, "Latitude": 34.257908, "ObjectId": 17, "store_chain": "Trader Joe's", "chain_name": "Trader Joe's", "index_right": 16, "name": "Chatsworth", "chainstore_counts": 4.0 }, "geometry": { "type": "Point", "coordinates": [ -118.57977, 34.257908 ] } },
{ "type": "Feature", "properties": { "X": -118.57978, "Y": 34.258102, "Store_Name": "smart & final 528", "Address": "10340 Mason Ave", "Address_Line__2": null, "City": "Chatsworth", "State": "CA", "Zip5": 91311, "Zip4": "3305", "County": "LOS ANGELES", "Longitude": -118.57978, "Latitude": 34.258102, "ObjectId": 17, "store_chain": "Smart & Final", "chain_name": "Smart & Final", "index_right": 16, "name": "Chatsworth", "chainstore_counts": 4.0 }, "geometry": { "type": "Point", "coordinates": [ -118.57978, 34.258102 ] } },
{ "type": "Feature", "properties": { "X": -118.53825, "Y": 34.257286, "Store_Name": "smart & final 420", "Address": "18555 Devonshire St", "Address_Line__2": null, "City": "Northridge", "State": "CA", "Zip5": 91324, "Zip4": "1308", "County": "LOS ANGELES", "Longitude": -118.53825, "Latitude": 34.257286, "ObjectId": 77, "store_chain": "Smart & Final", "chain_name": "Smart & Final", "index_right": 76, "name": "Porter Ranch", "chainstore_counts": 3.0 }, "geometry": { "type": "Point", "coordinates": [ -118.53825, 34.257286 ] } },
{ "type": "Feature", "properties": { "X": -118.56394, "Y": 34.274868, "Store_Name": "ralphs fresh fare 127", "Address": "19781 Rinaldi St", "Address_Line__2": null, "City": "Northridge", "State": "CA", "Zip5": 91326, "Zip4": "4143", "County": "LOS ANGELES", "Longitude": -118.56394, "Latitude": 34.274868, "ObjectId": 77, "store_chain": "Ralphs", "chain_name": "Ralphs", "index_right": 76, "name": "Porter Ranch", "chainstore_counts": 3.0 }, "geometry": { "type": "Point", "coordinates": [ -118.56394, 34.274868 ] } },
{ "type": "Feature", "properties": { "X": -118.55493, "Y": 34.274925, "Store_Name": "whole foods market 10695", "Address": "20209 Rinaldi St.", "Address_Line__2": null, "City": "Porter Ranch", "State": "CA", "Zip5": 91326, "Zip4": null, "County": "LOS ANGELES", "Longitude": -118.55493, "Latitude": 34.274925, "ObjectId": 77, "store_chain": "Whole Foods", "chain_name": "Whole Foods", "index_right": 76, "name": "Porter Ranch", "chainstore_counts": 3.0 }, "geometry": { "type": "Point", "coordinates": [ -118.55493, 34.274925 ] } },
{ "type": "Feature", "properties": { "X": -118.32706, "Y": 34.259789, "Store_Name": "ralphs grocery company 49", "Address": "10455 Sunland Blvd", "Address_Line__2": null, "City": "Sunland", "State": "CA", "Zip5": 91040, "Zip4": "1905", "County": "LOS ANGELES", "Longitude": -118.32706, "Latitude": 34.259789, "ObjectId": 88, "store_chain": "Ralphs", "chain_name": "Ralphs", "index_right": 87, "name": "Sunland", "chainstore_counts": 1.0 }, "geometry": { "type": "Point", "coordinates": [ -118.32706, 34.259789 ] } },
{ "type": "Feature", "properties": { "X": -118.46753, "Y": 34.258163, "Store_Name": "vons 3161", "Address": "10321 Sepulveda Blvd", "Address_Line__2": null, "City": "Mission Hills", "State": "CA", "Zip5": 91345, "Zip4": "2421", "County": "LOS ANGELES", "Longitude": -118.46753, "Latitude": 34.258163, "ObjectId": 63, "store_chain": "Vons", "chain_name": "Vons", "index_right": 62, "name": "Mission Hills", "chainstore_counts": 1.0 }, "geometry": { "type": "Point", "coordinates": [ -118.46753, 34.258163 ] } },
{ "type": "Feature", "properties": { "X": -118.52641, "Y": 34.264492, "Store_Name": "ralphs grocery co.  646", "Address": "18010 Chatsworth St", "Address_Line__2": null, "City": "Granada Hills", "State": "CA", "Zip5": 91344, "Zip4": "5607", "County": "LOS ANGELES", "Longitude": -118.52641, "Latitude": 34.264492, "ObjectId": 37, "store_chain": "Ralphs", "chain_name": "Ralphs", "index_right": 36, "name": "Granada Hills", "chainstore_counts": 4.0 }, "geometry": { "type": "Point", "coordinates": [ -118.52641, 34.264492 ] } },
{ "type": "Feature", "properties": { "X": -118.5235, "Y": 34.266731, "Store_Name": "sprouts farmers market 223", "Address": "10821 Zelzah Ave", "Address_Line__2": null, "City": "Granada Hills", "State": "CA", "Zip5": 91344, "Zip4": "4433", "County": "LOS ANGELES", "Longitude": -118.5235, "Latitude": 34.266731, "ObjectId": 37, "store_chain": "Sprouts", "chain_name": "Sprouts", "index_right": 36, "name": "Granada Hills", "chainstore_counts": 4.0 }, "geometry": { "type": "Point", "coordinates": [ -118.5235, 34.266731 ] } },
{ "type": "Feature", "properties": { "X": -118.49845, "Y": 34.271996, "Store_Name": "vons 2250", "Address": "16830 San Fernando Mission Blvd", "Address_Line__2": null, "City": "Granada Hills", "State": "CA", "Zip5": 91344, "Zip4": "4247", "County": "LOS ANGELES", "Longitude": -118.49845, "Latitude": 34.271996, "ObjectId": 37, "store_chain": "Vons", "chain_name": "Vons", "index_right": 36, "name": "Granada Hills", "chainstore_counts": 4.0 }, "geometry": { "type": "Point", "coordinates": [ -118.49845, 34.271996 ] } },
{ "type": "Feature", "properties": { "X": -118.50213, "Y": 34.272312, "Store_Name": "trader joe's 44", "Address": "11114 Balboa Blvd", "Address_Line__2": null, "City": "Granada Hills", "State": "CA", "Zip5": 91344, "Zip4": "4203", "County": "LOS ANGELES", "Longitude": -118.50213, "Latitude": 34.272312, "ObjectId": 37, "store_chain": "Trader Joe's", "chain_name": "Trader Joe's", "index_right": 36, "name": "Granada Hills", "chainstore_counts": 4.0 }, "geometry": { "type": "Point", "coordinates": [ -118.50213, 34.272312 ] } },
{ "type": "Feature", "properties": { "X": -118.44079, "Y": 34.300629, "Store_Name": "food 4 less 767", "Address": "12689 Glenoaks Blvd", "Address_Line__2": null, "City": "Sylmar", "State": "CA", "Zip5": 91342, "Zip4": "4748", "County": "LOS ANGELES", "Longitude": -118.44079, "Latitude": 34.300629, "ObjectId": 90, "store_chain": "Food 4 Less", "chain_name": "Food 4 Less", "index_right": 89, "name": "Sylmar", "chainstore_counts": 3.0 }, "geometry": { "type": "Point", "coordinates": [ -118.44079, 34.300629 ] } },
{ "type": "Feature", "properties": { "X": -118.43435, "Y": 34.310535, "Store_Name": "vallarta supermarket 7", "Address": "13820 Foothill Blvd", "Address_Line__2": null, "City": "Sylmar", "State": "CA", "Zip5": 91342, "Zip4": "3012", "County": "LOS ANGELES", "Longitude": -118.43435, "Latitude": 34.310535, "ObjectId": 90, "store_chain": "Vallarta Spermarkets", "chain_name": "Vallarta Spermarkets", "index_right": 89, "name": "Sylmar", "chainstore_counts": 3.0 }, "geometry": { "type": "Point", "coordinates": [ -118.43435, 34.310535 ] } },
{ "type": "Feature", "properties": { "X": -118.43261, "Y": 34.309174, "Store_Name": "vons 2034", "Address": "13730 Foothill Blvd", "Address_Line__2": null, "City": "Sylmar", "State": "CA", "Zip5": 91342, "Zip4": "3104", "County": "LOS ANGELES", "Longitude": -118.43261, "Latitude": 34.309174, "ObjectId": 90, "store_chain": "Vons", "chain_name": "Vons", "index_right": 89, "name": "Sylmar", "chainstore_counts": 3.0 }, "geometry": { "type": "Point", "coordinates": [ -118.43261, 34.309174 ] } }
]
}
